stop_id,stop_code,stop_name,stop_lat,stop_lon
100148,100148,MARTIN LUTHER KING J@CHICAMAUGA AVE,33.753823,-84.431838
210829,99971061,DEERFIELD PKWY@TWO VERIZON PLACE,34.093084,-84.271166
100150,100150,MARTIN LUTHER KING JR DR @ CHAPPELL RD,33.753841,-84.433273
100152,100152,FAIR ST@FIRST ST,33.748905,-84.425545
100154,100154,FAIR ST@FIRST ST,33.74933,-84.425226
100156,100156,FAIR ST@ROSSER ST,33.748913,-84.4245
100158,100158,FAIR ST@ROSSER ST,33.749313,-84.424186
100160,100160,FAIR ST@LAWTON ST,33.748913,-84.423424
100162,100162,FAIR ST@ABBOTT ST,33.749191,-84.419426
100164,100164,MARTIN LUTHER KING J DR@OLLIE ST,33.754608,-84.42143
100166,100166,LUCILE AVE @ HOLDERNESS ST,33.742493,-84.426554
100168,100168,FAIR ST @ JOSEPH E LOWERY BLVD,33.749293,-84.418661
100170,100170,WESTVIEW DR@WESTVIEW PL,33.747696,-84.43442
101002,101002,W END AV SW @ LEE ST SW,33.744114,-84.414177
101004,101004,LEE ST SW@NORCROSS ST SW,33.743196,-84.414327
101006,101006,LEE ST SW@NORCROSS ST SW,33.743338,-84.413776
101008,101008,W END AVE SW @ WELLBORN ST SW,33.744457,-84.415237
101010,101010,PETERS ST SW@HAYNES ST SW,33.749214,-84.399712
101014,101014,FAIR ST SW@NORTHSIDE DR SW,33.749042,-84.40406
101016,101016,FAIR ST SW@WALNUT ST SW,33.749467,-84.40647
101018,101018,FAIR ST SW@VINE ST SW,33.749523,-84.407741
101020,101020,FAIR ST SW@ELM ST SW,33.749509,-84.40958
900213,99288,WELLINGTON ST@MARTIN LUTHER KING J,33.752451,-84.43835
900214,99290,LAUREL AVE SW@MARTIN LUTHER KING J ,33.751918,-84.439959
900215,99292,LAUREL AVE SW@ARCHER ST SW,33.750663,-84.440032
900216,99294,MIMS ST SW@LAUREL AVE SW,33.749829,-84.439784
900217,99296,MARTIN LUTHER KING J DR SW@RACINE S,33.751751,-84.44126
900218,99298,MARTIN LUTHER KING J DR SW@FEDERAL ,33.751611,-84.44244
900219,99300,MARTIN LUTHER KING J DR@LAKE AVE S,33.751277,-84.443876
900220,99304,LUCILE AVE SW @ LANGHORN ST SW,33.742081,-84.432564
900221,99306,LUCILE AVE SW @ MUSE ST SW,33.742374,-84.433716
900222,99308,LUCILE AVE SW @ MUSE ST SW,33.742096,-84.433807
900223,99310,LUCILE AVE SW @ ALTOONA PL SW,33.742546,-84.43499
900135,99314,LUCILE AVE SW @ MATHEWSON PL SW,33.742775,-84.43615
900138,99320,RALPH D ABERNATHY BLVD @ WELLINGTON ST SW,33.744278,-84.43866
900139,99322,RALPH D ABERNATHY BLVD @ WELLINGTON ST,33.74432,-84.43911
900140,99326,CASCADE AVE SW@CASCADE CIR SW,33.726612,-84.444778
900141,99328,CASCADE AVE SW@KENMORE ST SW,33.727116,-84.444054
900142,99330,CASCADE AVE SW @ ORLANDO ST SW,33.727827,-84.443085
900143,99332,CASCADE AVE SW @ MAYFLOWER AVE SW,33.72868,-84.441727
900147,99358,CASCADE AVE SW@ALLEGHENY ST SW,33.734879,-84.436554
101044,101044,FAIR ST SW @ JAMES P BRAWLEY DR SW,33.749168,-84.413086
101046,101046,FAIR ST SW@MILTON ST SW,33.749146,-84.414597
210825,99971058,MORRIS RD@WEBB RD,34.097533,-84.259588
210826,99971059,WEBB RD@DEERFIELD PKWY,34.098037,-84.264185
101069,101069,MARTIN LUTHER KING J DR @ JOSEPH E LOWERY BLVD ,33.754678,-84.417739
100096,100096,LUCILE AVE SW @ LAWTON ST SW,33.742065,-84.423462
100098,100098,LUCILE AVE SW @ LAWTON ST SW,33.742169,-84.422714
100100,100100,LUCILE AVE SW @ PEEPLES ST SW,33.741464,-84.420484
100102,100102,LUCILE AVE SW @ ATWOOD ST SW,33.742378,-84.428787
100114,100114,JOSEPH E LOWERY BLVD@SELLS AVE SW,33.745314,-84.41729
100115,100115,JOSEPH E LOWERY BLVD@WESTVIEW DR SW,33.74634,-84.417334
210827,99971057,MORRIS RD@WEBB RD,34.097408,-84.259534
210828,99971060,DEERFIELD PKWY@THREE VERIZON PLACE,34.095632,-84.268347
100124,100124,MARTIN LUTHER KING J DR SW@CERRO ST,33.753645,-84.42959
100126,100126,MARTIN LUTHER KING J DR SW@BURBANK ,33.753596,-84.427961
100128,100128,MARTIN LUTHER KING J@STAFFORD ST,33.75316,-84.4267
100130,100130,MARTIN LUTHER KING J@STAFFORD ST,33.753626,-84.426592
100132,100132,MARTIN LUTHER KING J@MORRIS BROW,33.753383,-84.425482
100134,100134,MARTIN LUTHER KING J@MORRIS BROW,33.753804,-84.425511
100136,100136,MARTIN LUTHER KING J@HUNTER PL N,33.754194,-84.423901
100137,100137,MARTIN LUTHER KING J DR @ WHITEHOUSE DR,33.754709,-84.41994
100138,100138,MARTIN LUTHER KING J@HUNTER PL,33.754431,-84.423892
100142,100142,MARTIN LUTHER KING J@BOOKER ST,33.754742,-84.420372
100038,100038,FAIR ST SW@AGNES JONES PL SW,33.748981,-84.420273
100040,100040,FAIR ST SW@JOSE ST SW,33.74892,-84.421694
100042,100042,FAIR ST SW@LAWTON ST SW,33.749344,-84.423011
100043,100043,FAIR ST SW@SAINT JOSE ST SW,33.749272,-84.421726
100044,100044,FAIR ST SW@EUHRLEE ST SW,33.749027,-84.416145
100045,100045,FAIR ST SW@AGNES JONES PL SW,33.749162,-84.420461
100046,100046,JOSEPH E LOWERY BLVD@MITCHELL ST SW,33.753431,-84.417326
100048,100048,JOSEPH E LOWERY BLVD @ MARTIN L KING JR DR,33.754524,-84.417346
100050,100050,MARTIN LUTHER KING J@CHICAMAUGA AVE,33.753472,-84.432261
100052,100052,MARTIN LUTHER KING J DR SW@CERRO ST,33.753285,-84.42994
100054,100054,MARTIN LUTHER KING J DR SW@BURBANK ,33.753227,-84.428271
100058,100058,HOLDERNESS ST SW@FAIR ST SW,33.748933,-84.426351
100060,100060,FAIR ST SW@HOLDERNESS ST SW,33.749299,-84.4263
100061,100061,HOLDERNESS ST SW@WESTVIEW DR SW,33.747532,-84.426611
100082,100082,LUCILE AVE SW @ DARGAN PL SW,33.742378,-84.425133
100084,100084,LUCILE AVE SW @ HOPKINS ST SW,33.74237,-84.43048
100086,100086,LUCILE AVE SW @ LANGHORN ST SW,33.742336,-84.432297
100088,100088,LUCILE AVE SW @ HOPKINS ST SW,33.742174,-84.430404
100090,100090,LUCILE AVE SW @ ATWOOD ST SW,33.742107,-84.429085
100092,100092,LUCILE AVE SW @ HOLDERNESS ST SW,33.742058,-84.427368
100094,100094,LUCILE AVE SW @ DARGAN PL SW,33.742073,-84.424644
101022,101022,FAIR ST SW@LAWSHE ST SW,33.749532,-84.410933
101024,101024,FAIR ST SW @ JAMES P BRAWLEY DR SW,33.749556,-84.412599
101026,101026,FAIR ST SW@MILTON ST SW,33.749457,-84.414271
101030,101030,PETERS ST SW@FAIR ST SW,33.748085,-84.401161
101031,101031,FAIR ST SW@PETERS ST SW,33.74805,-84.40144
101032,101032,FAIR ST SW@WALKER ST SW,33.748478,-84.402795
101036,101036,FAIR ST SW@WALNUT ST SW,33.74902,-84.406578
101038,101038,FAIR ST SW@VINE ST SW,33.749146,-84.407845
100062,100062,HOLDERNESS ST SW@WESTVIEW DR SW,33.747425,-84.426987
100063,100063,WESTVIEW DR SW@LANGHORN ST SW,33.747154,-84.427994
100064,100064,WESTVIEW DR SW@LANGHORN ST SW,33.747539,-84.427968
100065,100065,WESTVIEW DR SW@ATWOOD ST SW,33.747612,-84.428839
100066,100066,WESTVIEW DR SW@ATWOOD ST SW,33.747192,-84.429146
100067,100067,WESTVIEW DR SW@HOPKINS ST SW,33.747636,-84.430851
100068,100068,WESTVIEW DR SW@HOPKINS ST SW,33.747242,-84.431259
100069,100069,WESTVIEW DR SW@CHICAMAUGA AVE SW,33.747691,-84.431993
100070,100070,WESTVIEW DR SW@CHICAMAUGA AVE SW,33.74728,-84.432335
100071,100071,WESTVIEW DR SW@1403,33.747707,-84.433192
100072,100072,WESTVIEW DR@1403,33.747334,-84.433228
100074,100074,LUCILE AVE SW @ JOSEPH E LOWERY BLVD,33.742268,-84.418137
100076,100076,LUCILE AVE SW @ PEEPLES ST SW,33.742294,-84.420334
100078,100078,LUCILE AVE SW @ LAWTON ST SW,33.742287,-84.422523
100080,100080,LUCILE AVE SW @ LAWTON ST SW,33.742287,-84.423462
900148,99368,CASCADE AVE@RALPH DAVID ABERNATH BL,33.738846,-84.43351
900149,99370,CASCADE AVE SW@WESTWOOD AVE SW,33.738052,-84.435448
900150,99372,CASCADE AVE@OGLETHORPE AVE,33.736752,-84.436119
900151,99374,CASCADE AVE SW@OLYMPIAN WAY SW,33.735374,-84.436745
900152,99382,CASCADE AVE SW@MONTREAT AVE SW,33.730663,-84.440208
900153,99386,CASCADE AVE SW@ALTADENA PL SW,33.72963,-84.441216
900154,99388,CASCADE AVE SW@MAYFLOWER AVE SW,33.729071,-84.441931
900155,99389,CASCADE AVE@CASCADE TER,33.728046,-84.443521
900156,99402,RALPH D ABERNATHY BLVD @ 1701,33.747982,-84.44281
900157,99403,RALPH D ABERNATHY BLVD @ WESTVIEW DR,33.746922,-84.441505
900158,99404,RALPH D ABERNATHY BLVD @ LAUREL AVE,33.746067,-84.440971
900163,99426,BEECHER RD SW@SHIRLEY ST SW,33.734013,-84.453041
900164,99438,RALPH D ABERNATHY BLVD @ W ONTARIO AVE SW,33.745063,-84.439392
900169,99456,BEECHER ST SW@BEECHER CT SW,33.733524,-84.44796
900170,99457,BEECHER ST SW@KENNOLIA DR SW,33.733685,-84.448907
900171,99458,BEECHER ST SW@SHIRLEY ST SW,33.733265,-84.450996
900172,99360,CASCADE AVE SW@COPELAND AVE SW,33.735779,-84.436134
900173,99362,CASCADE AVE SW@OGLETHORPE AVE SW,33.736633,-84.435768
900174,99364,CASCADE AVE SW@DONNELLY AVE SW,33.737782,-84.43531
900175,99366,CASCADE AVE @ RALPH D ABERNATHY BLVD,33.738522,-84.433624
900176,99376,CASCADE AVE SW@BEECHER ST SW,33.734173,-84.437241
900177,99378,CASCADE AVE SW@BEECHER ST SW,33.733448,-84.437675
900178,99380,CASCADE AVE SW@WESTHAVEN DR SW,33.732388,-84.438492
900179,99381,CASCADE AVE SW@RICHLAND RD ,33.731729,-84.439294
900180,99392,CASCADE AVE SW@CASCADE CIR SW,33.72673,-84.44529
900181,99394,CASCADE AVE SW@EASTRIDGE RD SW,33.725872,-84.446518
900182,99396,ANDERSON AVE @ 93,33.75232,-84.445906
900183,99400,RALPH D ABERNATHY BLVD @ W LAKE AVE,33.749902,-84.444449
900187,99430,BEECHER RD SW@BEECHER CIR SW,33.7334,-84.457216
900188,99432,RALPH D ABERNATHY BLVD @ 1701,33.748299,-84.442444
900189,99434,RALPH D ABERNATH BLVD @ WESTVIEW DR SW,33.747078,-84.441345
900190,99436,RALPH D ABERNATHY BLVD @ LAUREL AVE SW,33.746109,-84.440475
900195,99459,GORDON ST SW @ ALVARADO TER SW,33.734448,-84.447198
900196,99460,BEECHER RD SW@SHIRLEY ST SW,33.733662,-84.453568
900198,99463,BEECHER RD SW@HIGHVIEW RD SW,33.727917,-84.462236
900199,99473,AARON ST@PENELOPE RD,33.753724,-84.451602
900200,99475,ANDERSON AVE @ MARTIN LUTHER KING J D,33.750854,-84.446236
900201,99477,WESTWOOD AVE@WILLARD AVE,33.73835,-84.438042
900202,99479,RALPH D ABERNATHY BLVD @ W ONTARIO AVE,33.745007,-84.439812
900203,99464,BEECHER RD SW@HIGHVIEW RD SW,33.732307,-84.458488
900204,99465,GORDON ST SW@ROGERS AVE SW,33.737172,-84.446688
900205,99466,BEECHER RD SW@BEECHER CIR ,33.733028,-84.456985
900206,99467,BEECHER RD SW@RECTOR DR SW,33.733307,-84.456342
900207,99481,BEECHER RD@BEECHER CIR,33.730915,-84.460136
900208,99496,LUCILE AVE @ RALPH D ABERNATHY BLVD,33.742935,-84.437271
100017,100017,W END AVE SW @ WELLBORN ST SW,33.744304,-84.415499
100022,100022,W END AVE SW @ ASHBY ST SW,33.744724,-84.417207
100024,100024,JOSEPH E LOWERY BLVD @ FAIR ST SW,33.749024,-84.417337
100026,100026,JOSEPH E LOWERY BLVD@PARSONS ST SW,33.75063,-84.417277
100028,100028,JOSEPH E LOWERY BLVD@BECKWITH ST SW,33.752027,-84.417322
100030,100030,FAIR ST SW@EUHRLEE ST SW,33.749485,-84.415922
100032,100032,FAIR ST SW@OGDEN ST SW,33.749476,-84.416734
100035,100035,FAIR ST SW @ JOSEPH E LOWERY BLVD,33.748924,-84.417769
900209,99334,CASCADE AVE SW@PINEVIEW TER SW,33.729683,-84.440666
900210,99336,CASCADE AVE SW@MONTREAT AVE SW,33.73032,-84.440056
900211,99338,CASCADE AVE SW@RICHLAND RD SW,33.731194,-84.439178
900212,99340,CASCADE AVE SW@WESTHAVEN DR SW,33.731964,-84.438454
100036,100036,FAIR ST SW@ABBOTT ST SW,33.748959,-84.419167
133028,133028,FAIRINGTON RD @ TIBURON DR,33.70224,-84.148796
159334,159334,ZIP INDUSTRIAL BLVD@SOUTHSIDE INDU,33.653275,-84.389267
175008,175008,ROOSEVELT HWY@FELDWOOD RD,33.614059,-84.517288
175010,175010,ROOSEVELT HWY@FELDWOOD RD,33.613003,-84.519707
175012,175012,ROOSEVELT HWY@WELCOME ALL RD SW,33.611093,-84.523496
175014,175014,ROOSEVELT HWY@BEN HILL RD,33.621288,-84.505638
151100,151100,STONEWALL DR SE@OHARA PL SE,33.691674,-84.356434
101040,101040,FAIR ST SW@ELM ST SW,33.749191,-84.409325
101042,101042,FAIR ST SW@JOHN HOPE DR SW,33.749192,-84.410651
151109,151109,VALLEY VIEW RD SE@1086,33.691437,-84.352416
151122,151122,FORREST PARK RD SE@STONEWALL DR SE,33.691174,-84.360352
151124,151124,FORREST PARK RD SE@MIDWAY ST SE,33.689859,-84.360329
158244,158244,SYLVAN RD@CHERYL DR,33.67722,-84.41872
158246,158246,SYLVAN RD@FREDELL PL,33.67918,-84.418526
158248,158248,SYLVAN RD @ CLEVELAND AVE,33.680786,-84.418488
159336,159336,ZIP INDUSTRIAL BLVD SE@3720,33.654934,-84.389046
159338,159338,ZIP INDUSTRIAL BLVD SE@3600,33.656818,-84.385529
159340,159340,ZIP INDUSTRIAL BLVD SE@3550,33.658184,-84.383408
175016,175016,ROOSEVELT HWY@ORCHARD DR,33.62033,-84.50777
159342,159342,ZIP INDUSTRIAL BLVD SE@BROWNS MILL ,33.660477,-84.384552
159344,159344,HAMILTON BLVD@3400,33.663052,-84.385826
175018,175018,ROOSEVELT HWY@DELANO RD,33.618226,-84.510975
175020,175020,ROOSEVELT HWY@DELANO RD,33.61382,-84.517232
175022,175022,ROOSEVELT HWY@FELDWOOD RD,33.612418,-84.520195
175024,175024,ROOSEVELT HWY@WELCOME ALL RD,33.610588,-84.523796
176012,176012,WASHINGTON RD@SPRING ST,33.624908,-84.492409
176014,176014,WASHINGTON RD@ROOSEVELT HWY,33.623608,-84.492477
176016,176016,ROOSEVELT HWY@STANSELL RD,33.622707,-84.494415
176018,176018,ROOSEVELT HWY@MILLER RD,33.622429,-84.497551
151130,151130,REBEL FOREST DR SE@FORREST PARK RD,33.688134,-84.360042
151132,151132,REDFORD DR SE@FORREST PARK RD SE,33.688624,-84.359816
151134,151134,REDFORD DR SE@955,33.688451,-84.35811
151144,151144,REDFORD DR SE@REBEL FOREST DR SE,33.686264,-84.355156
158258,158258,S CENTRAL AVE @ PERKINS ST,33.658089,-84.408044
158260,158260,S CENTRAL AVE @ FULTON AVE,33.658646,-84.408952
900224,99312,LUCILE AVE SW @ ALTOONA PL SW,33.742336,-84.435295
128020,128020,FLINTWOOD DR SE@FLAGSTONE DR ,33.71035,-84.31503
128030,128030,BRANNEN RD SE@2190,33.715183,-84.315422
128032,128032,BRANNEN RD SE@2154,33.71506,-84.31747
128034,128034,BRANNEN RD SE@FLAGSTONE DR ,33.71483,-84.31927
128036,128036,BRANNEN RD SE@ROCKCLIFF RD ,33.71486,-84.32018
128048,128048,BOULDERCREST DR @ FAYETTEVILLE RD,33.719403,-84.330026
129954,129954,HABERSHAM DR@GREYSTONE WAY,33.725023,-84.288184
129956,129956,FLAT SHOALS RD@SHAWN WAYNE CT,33.720165,-84.311951
129958,129958,FLAT SHOALS RD@SHAWN WAYNE CT,33.720492,-84.311699
130012,130012,MIRIAM LN @ VALLEY RIDGE DR,33.72024,-84.26806
130016,130016,MIRIAM LN@2658,33.72026,-84.27142
133015,133015,FAIRINGTON RD @ CHUPP WAY,33.701894,-84.147674
133016,133016,HILLANDALE DR @ FAIRINGTON RD,33.703789,-84.145561
133018,133018,FAIRINGTON RD @ WALMART DR,33.701315,-84.170042
133020,133020,HILLANDALE DR@6136,33.705959,-84.140274
138098,138098,PRYOR RD SW@THORNTON ST SW,33.711675,-84.393469
138100,138100,LAKEWOOD AVE@SHADYDALE AVE,33.701912,-84.385002
138102,138102,LAKEWOOD AVE@CLAIRE DR,33.705212,-84.380524
138104,138104,LAKEWOOD AVE@ADAIR AVE,33.706348,-84.380363
139004,139004,LAKEWOOD AVE SE@CLAIRE DR SE,33.70525,-84.380257
139006,139006,LAKEWOOD AVE SE@ADAIR AVE SE,33.705954,-84.379953
139008,139008,JONESBORO RD SE@JORDAN ST SE,33.703739,-84.37793
139010,139010,BROWNS MILL RD SE@LAQUITA DR SE,33.702621,-84.376839
128022,128022,VICKI LN SE@FLAGSTONE DR ,33.71096,-84.31459
128024,128024,VICKI LN SE@1897,33.71109,-84.31281
128026,128026,WELLAND AVE SE@BRANNEN RD ,33.715246,-84.311805
128028,128028,BRANNEN RD SE@BOULDER RD ,33.715591,-84.312988
128038,128038,BRANNEN RD SE@DIANNE CT ,33.715348,-84.323213
128042,128042,BRANNEN RD SE@CECILIA DR ,33.71745,-84.32563
129960,129960,FLAT SHOALS RD@WOODCASTLE LN,33.721577,-84.315237
130002,130002,KENNARD LN@GREEN FORREST DR,33.726035,-84.259345
130004,130004,GREEN FORREST DR@GAY,33.722939,-84.259295
130019,130019,VALLEY RIDGE DR @ CANDLER RD,33.720296,-84.275998
130020,130020,MIRIAM LN@2700,33.72032,-84.27299
133038,133038,PANOLA RD @ SNAPFINGER PARK DR,33.704622,-84.169788
133040,133040,PANOLA RD@HILLANDALE DR,33.705918,-84.169331
133042,133042,SNAPFINGER WOODS DR@PANOLA RD,33.709248,-84.168457
158308,158308,CLEVELAND AVE SW@786,33.680996,-84.413864
158316,158316,CLEVELAND AVE SW@BEELER DR SW,33.681263,-84.401062
158318,158318,CLEVELAND AVE SW@THIRD AVE ,33.68127,-84.40239
158320,158320,CLEVELAND AVE SW@DEARWOOD DR SW,33.681347,-84.404943
158322,158322,CLEVELAND AVE SW@METROPOLITAN PKY S,33.681346,-84.407551
159410,159410,HUTCHENS RD@KATOMARICK DR,33.667904,-84.363779
176040,176040,WASHINGTON RD@ROOSEVELT HWY,33.623238,-84.492142
176042,176042,WASHINGTON RD@SPRING ST,33.624772,-84.491913
176046,176046,WASHINGTON RD@4510,33.632606,-84.492051
176048,176048,WASHINGTON RD@SPANISH TRL,33.63341,-84.492124
151156,151156,CONSTITUTION RD@FORREST PARK RD,33.693232,-84.359593
164008,164008,OLD FAIRBURN RD @ SOMERSET TRL,33.663447,-84.527261
132120,132120,SNAPFINGER WOODS DR@LANTRAC CT,33.709397,-84.176067
133002,133002,SNAPFINGER WOODS DR@PANOLA RD,33.709064,-84.170387
133004,133004,SNAPFINGER WOODS DR@PANOLA RD,33.708759,-84.168686
133006,133006,PANOLA RD @ PANOLA INDUSTRIAL BLVD,33.707134,-84.169258
164010,164010,FAIRBURN RD @ LANDING SOUTH DR,33.664308,-84.520998
164014,164014,FAIRBURN RD SW @ WELCOME ALL RD ,33.664104,-84.523453
132118,132118,SNAPFINGER WOODS DR@PARK CENTRAL B,33.709314,-84.173753
133008,133008,PANOLA RD@SNAPFINGER PARK DR,33.705357,-84.169937
133012,133012,FAIRINGTON RD@PANOLA RD,33.700771,-84.171211
133014,133014,FAIRINGTON RD @ TIBURON DR,33.701958,-84.149086
133022,133022,HILLANDALE DR@SOMERSET PKWY,33.70594,-84.14222
151168,151168,CONSTITUTION RD@1415,33.688805,-84.333584
151170,151170,CONSTITUTION RD@1411,33.689189,-84.333423
151172,151172,CONSTITUTION RD@1490,33.689214,-84.331858
151174,151174,CONSTITUTION RD@1415,33.688718,-84.331884
158284,158284,WILLINGHAM DR @ PENNSYLVANIA ST,33.666717,-84.432089
158286,158286,CLEVELAND AVE@RANDALL ST,33.679523,-84.433418
158288,158288,CLEVELAND AVE@BAYARD ST,33.679523,-84.432091
158309,158309,CLEVELAND AVE@CHERYL DR,33.681629,-84.41743
158310,158310,CLEVELAND AVE SW@METROPOLITAN PKY S,33.68118,-84.40826
158312,158312,CLEVELAND AVE SW@DEARWOOD DR SW,33.680962,-84.40522
158314,158314,CLEVELAND AVE SW@3RD AVE SW,33.680908,-84.403023
151102,151102,STONEWALL DR SE@CONSTITUTION RD SE,33.692631,-84.356697
133024,133024,FAIRINGTON RD@HILLANDALE DR,33.703941,-84.145889
138094,138094,JOYLAND ST SW@BOOKER ST SW,33.71212,-84.39764
138106,138106,JONESBORO RD@LAKEWOOD AVE,33.707535,-84.38015
138350,138350,METROPOLITAN PKY SW@STEVE DR SW,33.675796,-84.40845
210001,99970343,S STONE MNT LITHONIA RD @ WELLS CIR,33.780879,-84.161423
139012,139012,BROWNS MILL RD SE@ADELLE ST SE,33.700588,-84.376038
139014,139014,BROWNS MILL RD SE@2039 ,33.69847,-84.3749
128018,128018,ROLLINGWOOD LN SE@FLINTWOOD DR ,33.70998,-84.312332
210003,99970346,S STONE MTN LITHONIA RD @ SHADOW ROCK DR,33.771734,-84.16303
122232,122232,CASCADE AVE SW@1120,33.725174,-84.447176
122234,122234,CASCADE AVE SW@1155,33.723957,-84.449219
122238,122238,CASCADE AVE SW@CASCADE CIR SW,33.723446,-84.450089
111020,111020,STONE MOUNTAIN LITHO RD@2399,33.736045,-84.116627
159364,159364,JONESBORO RD @ CONLEY RD,33.64929,-84.36574
159370,159370,CLEVELAND AVE SW@72,33.68129,-84.39094
176002,176002,WASHINGTON RD@CARMEL DR,33.639038,-84.491898
176004,176004,WASHINGTON RD@SPANISH TRL,33.633644,-84.492561
176006,176006,WASHINGTON RD@4555,33.632595,-84.492561
176010,176010,WASHINGTON RD@HATHCOCK RD,33.626907,-84.492203
210375,99970585,E LAKE DR @ 2ND AVE,33.759879,-84.310329
210376,99970588,E LAKE DR @ 3RD AVE,33.759646,-84.30835
210377,99970589,E LAKE DR @ OAKVIEW RD,33.759511,-84.303534
151138,151138,REBEL FOREST DR SE@NATHAM DR SE,33.687351,-84.357299
158252,158252,N CENTRAL AVE @ LAVISTA DR,33.65489,-84.40198
158282,158282,WILLINGHAM DR @ BACHELOR AVE,33.666288,-84.430785
159382,159382,ZIP INDUSTRIAL BLVD@3675,33.656252,-84.386809
159384,159384,OLD HAPEVILLE RD@CLEVELAND AVE,33.679839,-84.393117
159390,159390,BROWNS MILL RD@OAK DR,33.667715,-84.380405
159392,159392,CLEVELAND AVE@445,33.680699,-84.375078
210482,99970713,S INDIAN CREEK DR@INDIAN CREEK CIR,33.750783,-84.220374
210589,99970818,BROWNS MILL RD@ SPRINGSIDE DR,33.676312,-84.384272
176036,176036,ROOSEVELT HWY@MILLER RD,33.622224,-84.49773
176038,176038,ROOSEVELT@STANSELL RD,33.622491,-84.494702
151176,151176,ISA DR@PHILLIPS DR,33.700285,-84.354022
151178,151178,ISA DR@AKRON DR,33.700243,-84.352756
158303,158303,METROPOLITAN PKWY @ OLD JONESBORO RD,33.677004,-84.408742
158306,158306,CLEVELAND AVE SW@SPRINGDALE RD SW,33.681389,-84.414536
109038,109038,HAIRSTON RD@BIG VALLEY RD,33.741003,-84.195957
115006,115006,PRYOR ST SW@GLENN ST SW,33.738018,-84.394943
115016,115016,PRYOR ST SW @ DOANE ST SW,33.730912,-84.393095
115018,115018,PRYOR ST SW@DOANE ST SW,33.731134,-84.39275
115038,115038,COOPER ST SW@BASS ST SW,33.73577,-84.39719
115040,115040,COOPER ST SW@LOVE ST SW,33.734595,-84.397312
118036,118036,FULTON INDUSTRIAL BLVD@6095,33.713367,-84.58845
122130,122130,ALISON CT@PLAZA LN SW,33.700378,-84.453201
122132,122132,ALISON CT@1935,33.699852,-84.451515
109012,109012,COVINGTON HWY@HAIRSTON RD,33.730289,-84.193184
109014,109014,COVINGTON HWY@HIDDEN CHASE,33.728175,-84.189072
109015,109015,COVINGTON HWY@HIDDEN CREEK DR,33.727361,-84.186858
109016,109016,COVINGTON HWY@HIDDEN CHASE,33.728367,-84.188797
109026,109026,HAIRSTON RD@WHITE OAK TRL,33.751067,-84.19737
109028,109028,S HAIRSTON RD @ BISHOP MING BLVD,33.73758,-84.194371
109030,109030,S HAIRSTON RD@WOODWAY DR,33.737235,-84.193899
109032,109032,HAIRSTON RD@MERCER RD,33.753111,-84.197321
115024,115024,CENTRAL AVE SW@GLENN ST SW,33.738284,-84.393333
115034,115034,WINDSOR ST SW@RICHARDSON ST SW,33.740773,-84.398288
115036,115036,WINDSOR ST SW@CRUMLEY ST SW,33.73951,-84.39844
118040,118040,FULTON IND BLVD @ TRADEWATER PKY,33.710708,-84.591185
118050,118050,FULTON INDUSTRIAL BLVD@PLUMMER RD,33.720752,-84.585061
118052,118052,FULTON INDUSTRIAL BLVD@BOAT ROCK R,33.725821,-84.582613
122146,122146,STANTON RD@PHILLIPS CT,33.703854,-84.44471
122150,122150,STANTON RD@LAKE AVE SW,33.705906,-84.443756
122152,122152,STANTON RD@LESLIE AVE,33.707214,-84.443726
118090,118090,FULTON INDUSTRIAL BLVD@RIVERSIDE D,33.712143,-84.589746
122140,122140,STANTON RD@FORT VALLEY DR,33.702141,-84.446875
122142,122142,STANTON RD@MCCLELLAND AVE,33.702557,-84.446198
122144,122144,STANTON RD@HAWTHORNE TRL,33.703577,-84.444992
122154,122154,STANTON RD@MARCEL AVE,33.708378,-84.44371
122156,122156,STANTON RD@1600,33.709278,-84.443565
122158,122158,STANTON RD@CAMPBELLTON RD,33.710693,-84.44355
122160,122160,CASCADE AVE SW@1154,33.723618,-84.449188
122174,122174,VENETIAN DR SW@ALDER LN SW,33.714737,-84.448578
109040,109040,HAIRSTON RD@BIG VALLEY RD,33.74068,-84.195397
109042,109042,HAIRSTON RD@BIRCH RIDGE TRL,33.74792,-84.196685
109044,109044,HAIRSTON RD@BIRCH RIDGE TRL,33.748276,-84.197165
110002,110002,S STONE MOUNTAIN LITHONIA RD @ SHADOW ROCK DR,33.74622,-84.138809
110004,110004,S STONE MOUNTAIN LITHONIA RD @ WELLBORN RD,33.746738,-84.140968
110006,110006,REDAN RD @ DUREN FARMS DR,33.747307,-84.14546
111022,111022,S STONE MOUNTAIN LITHONIA RD @ 2399,33.736365,-84.116209
111030,111030,STONE MOUNTAIN LITHO RD@LITHONIA IN,33.73502,-84.11556
112174,112174,OAK ST SW @ JOSEPH E LOWERY BLVD,33.740563,-84.417895
113004,113004,OGLETHORPE AVE SW@GORDON PL SW,33.736003,-84.418995
115130,115130,GEORGIA AVE SE@AMI ST SE,33.737075,-84.382117
115138,115138,WINDSOR ST SW@RICHARDSON ST SW,33.740486,-84.398117
115140,115140,WINDSOR ST SW@CRUMLEY ST SW,33.739212,-84.398117
115152,115152,COOPER ST@HENDRIX AVE,33.73241,-84.397018
115154,115154,HENDRIX AVE SW@PRYOR ST ,33.732317,-84.393802
115156,115156,HENDRIX AVE SW@213,33.73235,-84.39545
120074,120074,FAIRBURN RD SW@VILLAGE DR ,33.714798,-84.507103
120084,120084,CASCADE RD SW@FAIRBURN RD SW,33.723471,-84.509529
120086,120086,CASCADE RD SW@UTOY SPRINGS RD SW,33.722992,-84.50692
120088,120088,CASCADE RD@UTOY SPRINGS RD,33.722861,-84.50492
120090,120090,COUNTY LINE RD SW @ WILSON JAMES RD SW,33.697979,-84.535795
120100,120100,COUNTY LINE RD SW @ REGENCY TRCE SW,33.707993,-84.536242
120102,120102,NISKEY LAKE RD @ LAKE COVE WAY SW,33.708348,-84.532619
111015,111015,STONE MOUNTAIN LITH RD@2222,33.742036,-84.124059
111017,111017,STONE MOUNTAIN LITHO RD @ 2277,33.74107,-84.12258
111032,111032,STONE MOUNTAIN LITHO RD@DESHON RD,33.744682,-84.13213
111034,111034,STONE MOUNTAIN LITHO RD@REDAN EAST,33.74435,-84.12955
111036,111036,S STONE MOUNTAIN LITHONIA RD @ REDAN EAST,33.744402,-84.128603
111038,111038,S STONE MOUNTAIN LITHONIA RD @ 2270,33.741267,-84.122427
115132,115132,GEORGIA AVE SE@MARTIN ST SE,33.736861,-84.384046
115136,115136,GEORGIA AVE SE @ FRASER ST SE,33.736904,-84.386242
115144,115144,COOPER ST @ RALPH D ABERNATHY BLVD,33.73656,-84.39695
115146,115146,COOPER ST SW@BASS ST SW,33.735355,-84.39698
115148,115148,COOPER ST SW@LOVE ST SW,33.735009,-84.396956
115150,115150,COOPER ST SW@DODD AVE SW,33.733395,-84.397011
120076,120076,FAIRBURN RD SW@VILLAGE DR SW,33.71596,-84.50797
120078,120078,FAIRBURN RD SW@UTOY SPRINGS RD ,33.718296,-84.507881
120080,120080,FAIRBURN RD SW@UTOY SPRINGS RD SW,33.72069,-84.508175
109020,109020,S HAIRSTON RD @ TREEHILLS PKY,33.752618,-84.196884
109022,109022,S HAIRSTON RD @ COVINGTON HWY,33.732013,-84.193944
109024,109024,HAIRSTON RD@WHITE OAK TRL,33.750957,-84.196948
906402,109034,S HAIRSTON RD,33.754574,-84.197426
109036,109036,HAIRSTON RD@COVINGTON HWY,33.732549,-84.194337
111004,111004,S STONE MOUNTAIN LITHONIA RD @ 2222,33.74246,-84.12489
111008,111008,S STONE MOUNTAIN LITHONIA RD @ S DESHON RD,33.744949,-84.133041
115102,115102,ORMOND ST SE@FRASER ST SE,33.731716,-84.386299
115106,115106,ATLANTA AVE SE@MARTIN ST SE,33.73016,-84.384567
115122,115122,GEORGIA AVE SE @ MARTIN ST SE,33.73658,-84.384331
115124,115124,GEORGIA AVE SE @ AMI ST SE,33.736693,-84.382027
110024,110024,REDAN RD@DURAN FARMS DR,33.74741,-84.14618
120050,120050,FAIRBURN RD SW@HERITAGE VALLEY RD S,33.705818,-84.50695
120052,120052,FAIRBURN RD SW@INGLEDALE DR SW,33.705044,-84.506752
120054,120054,FAIRBURN RD SW@GLENVIEW CIR SW,33.703342,-84.506523
120056,120056,FAIRBURN RD SW@MT GILEAD RD SW,33.701454,-84.506645
115084,115084,GEORGIA AVE SE @ FRASER ST SE,33.736599,-84.386627
115108,115108,ATLANTA AVE SE@GREENFIELD AVE SE,33.730211,-84.383494
115110,115110,ORMOND ST SE@CONNALLY ST SE,33.731716,-84.380773
115112,115112,ORMOND ST SE@GREENFIELD AVE SE,33.731689,-84.383118
115114,115114,ORMOND ST SE@MARTIN ST SE,33.731686,-84.384254
115128,115128,ATLANTA AVE SE@FRASER ST SE,33.730175,-84.386452
120044,120044,FAIRBURN RD@GARRISON DR,33.713909,-84.507263
120046,120046,FAIRBURN RD@MELVIN DR,33.710297,-84.506485
120048,120048,FAIRBURN RD SW@MELVIN DR SW,33.708176,-84.507454
120058,120058,BARGE RD SW@FAIRBURN RD SW,33.69849,-84.507172
120064,120064,FAIRBURN RD SW@HILL ACRES RD SW,33.699631,-84.50666
122206,122206,CENTRA VILLA DR SW@CEDAR LN SW,33.712806,-84.453941
124070,124070,METROPOLITAN PKY SW@LYNNHAVEN DR SW,33.715893,-84.407776
120066,120066,FAIRBURN RD SW@MT GILEAD RD SW,33.701122,-84.506035
120068,120068,FAIRBURN RD SW@HERITAGE VALLEY RD S,33.706005,-84.506485
120070,120070,FAIRBURN RD SW@MELVIN DR SW,33.708349,-84.507021
120072,120072,FAIRBURN RD SW@GARRISON DR SW,33.712463,-84.505722
122202,122202,CENTRA VILLA DR SW@CAMPBELLTON RD S,33.707603,-84.455696
122204,122204,CENTRA VILLA DR SW@HONEYSUCKLE SW,33.71077,-84.454903
110018,110018,REDAN RD@BENTLEY WOODS TRL,33.75149,-84.15479
110020,110020,REDAN RD@BENTLEY WOODS LANE,33.750664,-84.153152
110030,110030,REDAN RD @ PANOLA RD,33.755939,-84.165552
110032,110032,REDAN RD@PANOLA RD,33.755692,-84.164459
110034,110034,REDAN RD@REDAN CIR,33.75258,-84.15715
110036,110036,REDAN RD@REDAN CIR,33.752441,-84.155922
111010,111010,S STONE MOUNTAIN LITHONIA RD @ RICE RD,33.745065,-84.136932
111012,111012,STONE MOUNTAIN LITHO RD@RICE RD,33.744774,-84.137138
115082,115082,HANK AARON DR SE @ GEORGIA AVE SE,33.736542,-84.38781
122128,122128,ALISON CT SW@MYRTLE DR SW,33.700657,-84.454743
122208,122208,CENTRA VILLA DR SW@VENETIAN DR SW,33.714409,-84.453392
122210,122210,VENETIAN DR SW@POLLARD DR ,33.715073,-84.456238
122212,122212,VENETIAN DR SW@BOULEVARD LORRAINE  ,33.715145,-84.457848
122222,122222,WESTRIDGE RD SW@BAYBERRY DR SW,33.71605,-84.446658
122224,122224,WESTRIDGE RD SW@CUMMINGS DR SW,33.716923,-84.446732
122226,122226,WESTRIDGE RD SW@SANDTOWN RD SW,33.717701,-84.446739
122228,122228,CASCADE AVE SW@EASTRIDGE RD SW,33.725262,-84.446411
122214,122214,VENETIAN DR SW@PINEHURST DR SW,33.714458,-84.452255
122216,122216,VENETIAN DR SW@CAHABA DR SW,33.714314,-84.449715
122218,122218,VENETIAN DR SW@ALDER  SW,33.714375,-84.448662
122220,122220,VENETIAN DR SW@WILLOWBROOK DR SW,33.714321,-84.447067
122230,122230,CASCADE AVE SW@1113,33.72506,-84.447609
123094,123094,SYLVAN RD SW@BYRON DR SW,33.712479,-84.418373
110016,110016,REDAN RD@REDAN CIR,33.75442,-84.16156
115044,115044,COOPER ST SW@HENDRIX AVE SW,33.73255,-84.39735
115046,115046,HENDRIX AVE SW@218,33.73212,-84.39523
115048,115048,HENDRIX AVE SW@PRYOR ST SW,33.73215,-84.39388
118092,118092,FULTON INDUSTRIAL BLVD@CAMP CREEK,33.728121,-84.576629
118094,118094,LAGRANGE BLVD@6040,33.721117,-84.590413
119002,119002,BOAT ROCK RD SW @ REYNOLDS RD SW,33.723739,-84.572353
120012,120012,CASCADE RD SW@KIMBERLY RD SW,33.72552,-84.515609
120032,120032,CASCADE RD@RESEARCH CENTER ATLA DR,33.723303,-84.506875
120034,120034,CASCADE RD@3675,33.723696,-84.50878
120035,120035,CASCADE RD @ FAIRBURN RD,33.723912,-84.510993
120036,120036,FAIRBURN RD@CASCADE RD,33.7239,-84.510399
122166,122166,SANDTOWN RD SW@LOCKHAVEN CIR ,33.717468,-84.445198
122168,122168,SANDTOWN RD SW@WESTRIDGE RD SW,33.718124,-84.446739
122170,122170,WESTRIDGE RD SW@BAYBERRY DR SW,33.715988,-84.447166
122172,122172,WESTRIDGE RD SW@VENETIAN DR SW,33.714741,-84.447159
109046,109046,COVINGTON HWY @ S HAIRSTON RD,33.731254,-84.193909
110008,110008,REDAN RD@YOUNG RD,33.749,-84.14908
110010,110010,REDAN RD@BENTLEY WOODS LN,33.750782,-84.152687
110012,110012,REDAN RD@BENTLEY WOODS TRL,33.751816,-84.154655
115052,115052,PRYOR RD SW@RIDGE AVE SW,33.727341,-84.392831
115080,115080,RALPH DAVID ABERNATH BLVD@CENTRAL,33.736584,-84.393707
120016,120016,CASCADE RD SW@KIMBERLY RD SW,33.725967,-84.515816
120018,120018,CASCADE RD SW@OLD CASCADE RD SW,33.724076,-84.511954
120030,120030,CASCADE AVE SW@3515,33.723193,-84.504497
120038,120038,FAIRBURN RD@1225,33.720871,-84.508713
120040,120040,FAIRBURN RD@UTOY SPRINGS RD,33.720066,-84.508171
110014,110014,REDAN RD@SORENSON DR,33.754765,-84.161644
120042,120042,FAIRBURN RD@VILLAGE DR,33.718227,-84.50853
122176,122176,VENETIAN DR SW@CAHABA DR SW,33.714745,-84.449455
122192,122192,SANDTOWN RD SW@WICHITA DR ,33.716518,-84.443092
122178,122178,VENETIAN DR SW@PINEHURST DR SW,33.714777,-84.451669
122180,122180,VENETIAN DR SW@CENTRA VILLA DR SW,33.714798,-84.453339
122194,122194,BOULEVARD LORRAINE@LOGAN LN,33.71215,-84.46163
122196,122196,DELOWE DR SW@W CEDAR LN SW,33.710442,-84.461517
122198,122198,DELOWE DR SW@CAMPBELLTON RD ,33.707806,-84.459
122200,122200,DELOWE DR SW@CAMPBELLTON RD SW,33.706398,-84.457886
110022,110022,REDAN RD@YOUNG RD,33.74862,-84.14877
110026,110026,STONE MOUNTAIN LITHO RD@WELLBORN R,33.746365,-84.140976
110028,110028,STONE MOUNTAIN LITHO RD@SHADOW ROC,33.745785,-84.138863
111002,111002,S STONE MOUNTAIN LITHONIA RD @ LITHONIA INDUSTRIAL BLVD,33.734798,-84.115028
900227,99524,MARTIN LUTHER KING J DR@2021,33.750228,-84.451857
900231,99900,WEST LAKE STATION - WEST LOOP,33.752833,-84.445389
900232,99901,WEST LAKE STATION - EAST LOOP,33.75263,-84.444719
900234,99906,MARTIN LUTHER KING J DR@LARCHWOOD,33.749552,-84.455159
900235,99916,MIMS ST@ALTOONA PL,33.749482,-84.435477
900236,99920,PENELOPE RD@ABBEY ST,33.753805,-84.45083
100004,100004,JOSEPH E LOWERY BLVD@BECKWITH ST SW,33.752636,-84.417759
100006,100006,JOSEPH E LOWERY BLVD@PARSONS ST SW,33.751251,-84.417762
100016,100016,W END AVE SW @ ASHBY ST SW,33.744255,-84.416588
124054,124054,METROPOLITAN PKY SW@GENESSEE AVE SW,33.716171,-84.408058
124056,124056,METROPOLITAN PKY SW@SHANNON DR SW,33.717251,-84.408058
124072,124072,METROPOLITAN PKY SW@SHANNON DR SW,33.716908,-84.407784
124074,124074,METROPOLITAN PKY SW@MANFORD RD SW,33.717899,-84.4077
124076,124076,METROPOLITAN PKY SW@LEXINGTON AVE S,33.723361,-84.407696
124086,124086,LINCOLN ST SW@THORNTON ST ,33.713032,-84.399349
124092,124092,METROPOLITAN PKY SW@ERIN AVE ,33.719418,-84.407644
124093,124093,METROPOLITAN PKY SW@UNIVERSITY AVE ,33.722025,-84.407678
900237,99512,HAMILTON E HOLMES DR@RENFRO DR,33.768239,-84.47086
900238,99518,GORDON ST@N OLYMPIAN WAY,33.73615,-84.446933
900239,99520,WESTWOOD AVE@CASCADE AVE,33.737954,-84.435557
900240,99522,DONNELLY AVE@OGLETHORPE AVE,33.737063,-84.433852
900241,99532,RALPH D ABERNATHY BLVD @ MARTIN L KING JR DR,33.750582,-84.445067
900242,99534,HARLAN RD@CHAUCER DR,33.745341,-84.482891
900243,99536,HARLAN RD@MARTIN LUTHER KING J DR,33.752464,-84.481495
900244,99538,HARLAN RD@HALDANE DR,33.744376,-84.482277
900245,99908,MARTIN LUTHER KING J DR @ ANDERSON AVE,33.750444,-84.446792
900247,99912,CASCADE AVE@BEECHER ST,33.733199,-84.437509
100008,100008,JOSEPH E LOWERY BLVD@ASHBY GRV SW,33.750144,-84.417732
100010,100010,JOSEPH E LOWERY BLVD @ FAIR ST SW,33.749364,-84.417742
100012,100012,JOSEPH E LOWERY BLVD@WESTVIEW DR SW,33.746685,-84.417803
100014,100014,JOSEPH E LOWERY BLVD@SELLS AVE SW,33.745587,-84.417784
124060,124060,METROPOLITAN PKY SW@LEXINGTON AVE S,33.723442,-84.408066
124062,124062,METROPOLITAN PKY SW@MAYLAND AVE SW,33.724873,-84.408107
124064,124064,METROPOLITAN PKY SW@FLETCHER ST SW,33.725582,-84.408073
124068,124068,METROPOLITAN PKY SW@DECKNER AVE SW,33.713963,-84.407806
124077,124077,METROPOLITAN PKY SW@MAYLAND AVE SW,33.724471,-84.407749
124078,124078,METROPOLITAN PKY SW@FLETCHER ST SW,33.725422,-84.407799
124080,124080,MCDANIEL ST SW@ROY ST SW,33.724216,-84.401825
124084,124084,MCDANIEL ST SW @ UNIVERSITY AVE SW,33.722161,-84.401726
124098,124098,MCDANIEL ST@1159,33.723168,-84.401778
125003,125003,WEYMAN AVE SW @ RIDGE AVE SW,33.724793,-84.390306
125004,125004,WEYMAN AVE SW@HANK AARON DR SW,33.724831,-84.388763
125002,125002,RIDGE AVE SW @ PULLIAM ST SW,33.72631,-84.392371
210846,99971093,PARKLAKE DR @ LAVISTA RD,33.846505,-84.249851
210847,99971094,HENDERSON MILL RD @ FIELDING DR,33.850779,-84.258456
123132,123132,ALMONT DR SW@WYLAND DR SW,33.725975,-84.430664
123134,123134,WYLAND DR SW@BLUEFIELD DR SW,33.72514,-84.431091
123136,123136,WYLAND DR SW@LANVALE DR SW,33.724239,-84.431145
123138,123138,WYLAND DR SW@LYNFORD DR SW,33.72327,-84.431107
123148,123148,WYLAND DR SW@LANVALE DR SW,33.724049,-84.430695
123150,123150,WYLAND DR SW@BLUEFIELD DR SW,33.724922,-84.43071
123152,123152,WYLAND DR SW@ALMONT DR SW,33.725616,-84.430679
123154,123154,ALMONT DR SW@EDGEFIELD DR SW,33.72559,-84.429932
123900,123900,LEE ST SW@1356,33.717407,-84.426301
123901,123901,OAKLAND CITY STATION,33.717802,-84.425782
124008,124008,METROPOLITAN PKY SW@ERIN AVE SW,33.719791,-84.408035
124010,124010,METROPOLITAN PKY SW@DILL AVE SW,33.71851,-84.40798
123124,123124,SYLVAN RD SW@BYRON DR SW,33.71292,-84.418092
123126,123126,OAKLAND DR SW@ALMONT DR SW,33.726002,-84.42749
123128,123128,ALMONT DR SW@INDALE PL SW,33.725906,-84.428345
123130,123130,ALMONT DR SW@EDGEFIELD DR SW,33.725929,-84.42939
123140,123140,WYLAND DR SW@AVON AVE SW,33.722404,-84.430984
123142,123142,AVON AVE SW@LORENZO DR SW,33.72245,-84.432465
123144,123144,AVON AVE SW@EPWORTH ST SW,33.722027,-84.431168
123146,123146,WYLAND DR SW@EDGEFIELD DR SW,33.722939,-84.430595
123156,123156,ALMONT DR SW@INDALE PL SW,33.725582,-84.428764
123158,123158,ALMONT DR@OAKLAND DR,33.725563,-84.427597
123160,123160,OAKLAND DR SW@LADD ST SW,33.727169,-84.427109
125212,125212,MCDONOUGH BLVD SE@LAKEWOOD AVE SE,33.717472,-84.382172
125214,125214,LAKEWOOD AVE SE@MCDONOUGH BLVD SE,33.716846,-84.381439
125216,125216,LAKEWOOD AVE SE@HARRIETT ST SE,33.715687,-84.381668
125226,125226,MCDONOUGH BLVD SE@MARTIN AVE SE,33.71843,-84.38367
125230,125230,PRYOR RD@MOURY AVE,33.716835,-84.393402
125232,125232,PRYOR RD@BOWEN CIR,33.71588,-84.39367
122406,122406,WESTRIDGE RD@CUMMINGS DR,33.717354,-84.447074
122410,122410,CAMPBELLTON RD@WILLOWBROOK DR,33.709861,-84.448274
122414,122414,DELOWE DR@DERBY DR,33.701891,-84.457513
123016,123016,MURPHY AVE SW@ARDEN AVE SW,33.716536,-84.424626
123018,123018,LANGSTON AVE SW@DECKNER AVE SW,33.713715,-84.424097
123030,123030,CAMPBELLTON RD SW@BYEWOOD LN SW,33.716858,-84.429169
123032,123032,CAMPBELLTON RD SW@EPWORTH ST SW,33.716291,-84.430689
122404,122404,MYRTLE DR@CAMPBELLTON RD,33.707133,-84.454811
123020,123020,LANGSTON AVE SW@MURPHY AVE SW,33.71416,-84.42532
123022,123022,MURPHY AVE SW@LANGSTON AVE SW,33.714534,-84.425439
123024,123024,LANGSTON AVE SW@HOOD DR SW,33.712353,-84.423349
123028,123028,CAMPBELLTON RD SW@OAKLAND DR SW,33.717621,-84.427353
123034,123034,CAMPBELLTON RD SW@OLIVE ST SW,33.715565,-84.431702
123036,123036,CAMPBELLTON RD SW@LORENZO DR SW,33.71538,-84.432418
123066,123066,CAMPBELLTON RD SW@OLIVE ST SW,33.715249,-84.431712
123068,123068,CAMPBELLTON RD SW @ RYAN ST SW,33.71596,-84.430591
123070,123070,CAMPBELLTON RD SW@BYEWOOD LN SW,33.71669,-84.428932
123072,123072,CAMPBELLTON RD SW@OAKLAND DR SW,33.717373,-84.427602
125218,125218,LAKEWOOD AVE SE@HARRIETT ST SE,33.715435,-84.381203
125220,125220,LAKEWOOD AVE SE@MILLER REED AVE SE,33.714512,-84.38131
125222,125222,RIDGE AVE SW @ WASHINGTON ST SW,33.725025,-84.391049
125224,125224,MCDONOUGH BLVD SE@MARTIN AVE SE,33.71821,-84.383666
122398,122398,AVON AVE@KENILWORTH DR,33.722166,-84.43436
124058,124058,METROPOLITAN PKY SW@UNIVERSITY AVE ,33.722172,-84.408028
123064,123064,CAMPBELLTON RD SW@LORENZO DR SW,33.715045,-84.432287
210848,99971090,PLEASANT HILL RD@WILLOW PARK BLVD,33.600134,-84.46764
210849,99971091,PLEASANT HILL RD@OLD NATIONAL HWY,33.600076,-84.471134
146334,146334,W FORREST AVE @ CHENEY ST,33.683747,-84.443328
146342,146342,DELOWE DR@DEWBERRY LN,33.69844,-84.45718
210850,99971092,PARKLAKE DR @ 2150,33.8485,-84.249065
125030,125030,RIDGE AVE SW@PULLIAM ST,33.72629,-84.39182
125036,125036,PRYOR RD SW@UNIVERSITY AVE SW,33.7222,-84.39357
125235,125235,PRYOR RD@THIRKELD AVE,33.713457,-84.393568
125236,125236,THORNTON ST@THORNTON PL,33.71143,-84.39915
125244,125244,WEYMAN AVE@HANK AARON DR,33.725227,-84.388537
125046,125046,JONESBORO RD SE@MCDONOUGH BLVD SE,33.719092,-84.385065
125048,125048,MCDONOUGH BLVD SE@MARCY ST SE,33.720228,-84.38625
125064,125064,JONESBORO RD SE@GAMMON AVE SE,33.718563,-84.385109
125066,125066,JONESBORO RD SE@BISBEE AVE SE,33.716763,-84.384354
125067,125067,JONESBORO RD SE@THIRKIELD AVE SE,33.715089,-84.383548
125068,125068,JONESBORO RD SE@BROWN AVE SE,33.714165,-84.383102
125094,125094,PRYOR RD SW@UNIVERSITY AVE ,33.72047,-84.393326
125098,125098,PRYOR RD SW@MANFORD RD SW,33.71817,-84.39339
125100,125100,PRYOR RD SW@BOWEN CIR SW,33.71581,-84.39333
125028,125028,WEYMAN AVE SW@RIDGE AVE SW,33.725206,-84.39057
125038,125038,PRYOR RD SW@UNIVERSITY AVE ,33.720848,-84.393593
125040,125040,JONESBORO RD SE@MILLER REED AVE SE,33.714062,-84.382866
125042,125042,JONESBORO RD SE@HARRIETT ST SE,33.714948,-84.383225
126014,126014,MCDONOUGH BLVD SE@GRANT ST SE,33.7164,-84.37787
126016,126016,MCDONOUGH BLVD SE@MILLER REED AVE S,33.71556,-84.37689
125043,125043,JONESBORO RD SE@BISBEE AVE SE,33.716778,-84.383905
125060,125060,MCDONOUGH BLVD SE@MARCY ST SE,33.720253,-84.386765
125062,125062,MCDONOUGH BLVD SE@JONESBORO RD SE,33.719205,-84.385248
125070,125070,JONESBORO RD SE@MELDON AVE SE,33.711574,-84.38218
125072,125072,JONESBORO RD SE@MOURY AVE SE,33.713284,-84.382927
125074,125074,PRYOR RD SW@MANFORD RD SW,33.71843,-84.39355
125120,125120,JOYLAND PL SW@PRYOR RD SW,33.713936,-84.39418
125122,125122,JOYLAND PL SW@220,33.71395,-84.39517
125124,125124,JOYLAND PL SW@BOWEN CIR SW,33.71399,-84.3961
125126,125126,JOYLAND ST SW@JOYLAND PL ,33.713715,-84.397591
125136,125136,JOYLAND PL SW@PRYOR RD SW,33.714181,-84.394134
125138,125138,PRYOR RD SW@THIRKELD AVE ,33.71308,-84.39336
125208,125208,MCDONOUGH BLVD SE@MARTIN AVE SE,33.71851,-84.384537
125128,125128,LINCOLN ST SW@JOYLAND ST ,33.713051,-84.398251
125130,125130,JOYLAND ST SW@JOYLAND PL SW,33.71378,-84.39788
125132,125132,JOYLAND PL SW@BOWEN CIR SW,33.714189,-84.396373
125134,125134,JOYLAND PL SW@BOWEN CIR SW,33.714189,-84.395166
125210,125210,MCDONOUGH BLVD SE@JONESBORO RD SE,33.718952,-84.384712
123204,123204,LANGSTON AVE@HOOD DR,33.712641,-84.423766
146372,146372,WASHINGTON AVE @ RANDALL ST,33.675926,-84.43333
146386,146386,HEADLAND DR@GRAYWALL ST,33.690596,-84.465185
148038,148038,KING ARNOLD ST@CLAIRE DR,33.658692,-84.405628
148042,148042,KING ARNOLD ST@FULTON AVE,33.659748,-84.407974
148044,148044,KING ARNOLD ST@DOGWOOD DR,33.660683,-84.409981
148046,148046,DOGWOOD DR@MARINA ST,33.661911,-84.409439
148062,148062,METROPOLITAN PKY SW@2370,33.690224,-84.407944
148064,148064,METROPOLITAN PKY SW@AVERY RD SW,33.691489,-84.40801
148066,148066,METROPOLITAN PKY SW@MILAM AVE SW,33.693722,-84.407917
148068,148068,METROPOLITAN PKY SW@MILAM AVE SW,33.694142,-84.408297
148078,148078,METROPOLITAN PKY SW@PERKERSON RD SW,33.685707,-84.408478
148082,148082,METROPOLITAN PKY SW@LANGSTON DR SW,33.69543,-84.408259
148098,148098,KING ARNOLD ST@525,33.658308,-84.404652
149002,149002,POLAR ROCK RD SW@BAGWELL DR SW,33.695995,-84.398155
149003,149003,FINCH DR@SWALLOW CIR,33.694886,-84.385575
149004,149004,POLAR ROCK RD SW@BICKNELL DR SW,33.695623,-84.397214
149010,149010,POLAR ROCK AVE SW@POLAR ROCK RD SW,33.694736,-84.396202
149011,149011,SWALLOW CIR@FINCH DR,33.69474,-84.38609
149014,149014,POLAR ROCK AVE SW@POLAR ROCK PL ,33.693642,-84.396225
149016,149016,POLAR ROCK AVE@POLAR ROCK PL,33.692528,-84.396255
149026,149026,POLAR ROCK TER@POLAR ROCK RD,33.694065,-84.394684
149030,149030,CLEVELAND AVE SW@OLD HAPEVILLE RD S,33.681186,-84.393484
149031,149031,OLD HAPEVILLE RD@MACON DR,33.68796,-84.39043
150036,150036,HARPER RD SE@BURROUGHS AVE SE,33.696818,-84.371099
124050,124050,METROPOLITAN PKY SW@1577,33.711692,-84.407996
124052,124052,METROPOLITAN PKY SW@DECKNER AVE SW,33.714423,-84.407956
148028,148028,SPRINGDALE RD SW @ PERKERSON RD SW,33.69654,-84.41388
148034,148034,KING ARNOLD ST@SHERMAN RD,33.657039,-84.403822
148048,148048,DOGWOOD DR @ NORTH AVE,33.665459,-84.408562
148050,148050,DOGWOOD DR @ LAKE DR,33.667172,-84.408408
148054,148054,SPRINGDALE RD @ SPRINGDALE PL,33.69381,-84.41376
148060,148060,METROPOLITAN PKY SW@PEGG RD SW,33.688832,-84.408063
148070,148070,METROPOLITAN PKY SW@AVERY RD SW,33.691738,-84.408516
148072,148072,METROPOLITAN PKY SW@2370,33.69035,-84.408357
148074,148074,METROPOLITAN PKY SW@PEGG RD SW,33.689282,-84.408332
146344,146344,DELOWE DR@2156,33.696144,-84.457359
146348,146348,DELOWE DR@2347,33.690681,-84.45755
146362,146362,HEADLAND DR@PLANTATION DR,33.690169,-84.462151
146364,146364,HEADLAND DR@WOOD VALLEY DR,33.690358,-84.46362
146366,146366,HEADLAND DR@HEADLAND TER,33.69075,-84.466008
146378,146378,NORMAN BERRY DR@SEMMES ST,33.685512,-84.44772
146380,146380,NORMAN BERRY DR@LESTER ST,33.685468,-84.445572
146382,146382,DORSEY AVE@2207,33.677906,-84.460937
146398,146398,WASHINGTON RD@REMINGTON ST,33.670222,-84.462938
146400,146400,WASHINGTON AVE@JONES ST,33.675645,-84.449025
146404,146404,HEADLAND DR @ RIDGECREST LN,33.689435,-84.459281
146416,146416,WASHINGTON AVE@SEMMES ST,33.67583,-84.447299
146500,146500,EAST POINT STATION,33.676675,-84.440574
146514,146514,HEADLAND DR@HILLCREST DR,33.685891,-84.45177
146516,146516,WASHINGTON AVE@SEMMES ST,33.675586,-84.447772
146520,146520,CLEVELAND AVE @ MAIN ST,33.679213,-84.440524
146504,146504,DELOWE DR@ELINWOOD DR,33.692341,-84.457434
146900,146900,EAST POINT STATION,33.67657,-84.44046
147002,147002,JEFFERSON TER@JEFFERSON AVE,33.684582,-84.427361
147004,147004,JEFFERSON AVE@BATAVIA ST,33.684593,-84.426453
147006,147006,JEFFERSON AVE@JEWEL ST,33.684719,-84.425377
147037,147037,SYLVAN RD SW@LAKEWOOD AVE SW,33.6975,-84.41856
147040,147040,SYLVAN RD@OAKLEIGH DR,33.691372,-84.418739
147042,147042,SYLVAN RD@PEGG RD,33.689301,-84.418709
147054,147054,SYLVAN RD@AVEBURY DR,33.684,-84.41831
147056,147056,SYLVAN RD@AVEBURY DR,33.684,-84.418828
147058,147058,SYLVAN RD@PARKSIDE TER,33.688026,-84.418327
147060,147060,SYLVAN RD@PEGG RD,33.68898,-84.41836
147070,147070,SYLVAN RD@LAKEWOOD AVE,33.69688,-84.41823
147072,147072,SPRINGDALE RD@BROOKDALE DR,33.686317,-84.414869
123202,123202,LANGSTON AVE@DECKNER AVE,33.713711,-84.424395
149072,149072,MACON DR@2144,33.695747,-84.389298
150018,150018,BROWNS MILL RD SE@FAIRLANE DR SE,33.683681,-84.38076
150020,150020,BROWNS MILL RD SE@BANBERRY DR SE,33.686768,-84.378098
150022,150022,MCWILLIAMS RD SE@CAREY DR SE,33.68833,-84.36968
150030,150030,JONESBORO RD SE@ 2267,33.691608,-84.365311
150032,150032,JONESBORO RD SE@CONSTITUTION RD SE,33.692951,-84.366409
150034,150034,JONESBORO RD SE@HARPER RD SE,33.696167,-84.369141
146272,146272,GRAYWALL ST@GRAYWALL CT,33.683788,-84.46373
146284,146284,DELOWE DR@MONTROSE DR,33.681931,-84.458023
146286,146286,DELOWE DR@LUTHER DR,33.680603,-84.457947
146349,146349,DELOWE DR@HEADLAND DR,33.68996,-84.457596
146350,146350,HEADLAND DR@2469,33.690751,-84.466979
146352,146352,HEADLAND DR@2472,33.690464,-84.467064
146354,146354,DELOWE DR @ HEADLAND DR,33.688435,-84.457672
146370,146370,DELOWE DR@HEADLAND DR,33.690155,-84.45721
147028,147028,SYLVAN RD@MILLEDGE ST,33.6941,-84.41865
147036,147036,SYLVAN RD@SAMPLER WAY,33.69581,-84.41864
146288,146288,DORSEY AVE @ LUTHER DR,33.677771,-84.459006
146290,146290,DORSEY AVE @ LANCASTER DR,33.678665,-84.462051
146292,146292,LANCASTER DR @ PLANTATION DR,33.678547,-84.465622
146308,146308,EAST POINT ST @ WARE AVE,33.681845,-84.441526
146320,146320,WILLINGHAM DR @ E MAIN ST,33.670055,-84.442529
146322,146322,CLEVELAND AVE@HARRIS ST,33.679459,-84.435394
146406,146406,W FORREST AVE @ CHURCH ST,33.683074,-84.44178
146408,146408,HEADLAND DR@BRYANT DR,33.691225,-84.471442
146410,146410,HEADLAND DR@DODSON DR,33.691262,-84.473904
146318,146318,WILLINGHAM DR @ PLANT ST,33.669495,-84.440483
146330,146330,IRENE KIDD PKY@CENTRAL AVE,33.675812,-84.439415
146332,146332,IRENE KIDD PKY @ CENTRAL AVE,33.67556,-84.439423
145038,145038,DALE LN SW@MT GILEAD RD SW,33.693611,-84.492409
148088,148088,METROPOLITAN PKY@PERKERSON RD,33.685112,-84.40799
148092,148092,KING ARNOLD ST @ SUNSET DR,33.655399,-84.39965
148094,148094,KING ARNOLD ST @ CENTRAL PARK DR,33.657346,-84.403631
148096,148096,KING ARNOLD ST@SHERMAN RD,33.656673,-84.402475
210793,99971028,W MOUNTAIN ST @GORDON ST,33.806659,-84.17673
149006,149006,POLAR ROCK RD SW@BICKNELL DR SW,33.695606,-84.397133
149007,149007,POLAR ROCK RD SW@PRYOR RD SW,33.696964,-84.398888
149008,149008,POLAR ROCK RD SW@POLAR ROCK AVE SW,33.695293,-84.396301
149018,149018,POLAR ROCK AVE SW@POLAR ROCK DR ,33.691147,-84.396317
149020,149020,POLAR ROCK AVE SW @ POLAR ROCK DR SW,33.689804,-84.396339
149022,149022,POLAR ROCK TER SW@POLAR ROCK DR SW,33.690788,-84.394653
149024,149024,POLAR ROCK TER SW@POLAR ROCK PL SW,33.692436,-84.394691
210794,99971029,W MOUNTAIN ST @ GORDON ST,33.806588,-84.176687
150058,150058,HARPER RD SE @ MEADOR AVE SE,33.696922,-84.380241
150060,150060,HARPER RD SE @ RHINEHILL RD SE,33.696598,-84.379158
150048,150048,BROWNS MILL RD SE@BROMACK DR SE,33.687389,-84.377609
150050,150050,MCWILLIAMS RD@BROWNS MILL RD,33.68842,-84.3743
150052,150052,MCWILLIAMS RD SE@BURROUGHS AVE SE,33.688374,-84.372177
150062,150062,HARPER RD SE@359,33.69662,-84.37746
906403,150064,HARPER RD @ BROWNS MILL RD,33.696754,-84.373793
149032,149032,OLD HAPEVILLE RD SW@JUDY  SW,33.684074,-84.392715
149033,149033,MACON DR@2324,33.691208,-84.391047
149042,149042,CLEVELAND AVE SW@STEELE AVE SW,33.681213,-84.396149
149044,149044,POLAR ROCK TER SW @ POLAR ROCK RD SW,33.695629,-84.394501
149045,149045,LAKEWOOD AVE @ LAKEWOOD WAY,33.698895,-84.392884
149046,149046,HARPER RD SE@SWALLOW CIR SE,33.696378,-84.38571
149051,149051,MACON DR SW@2145 ,33.695721,-84.389805
149053,149053,MACON DR SW@LANG DR ,33.694772,-84.390271
149064,149064,MACON DR SW@OLD HAPEVILLE RD SW,33.688446,-84.390747
149070,149070,SWALLOW CIR@FINCH DR,33.693928,-84.386091
210797,99971037,HAMILTON BLVD@BROWNS MILL RD,33.662204,-84.383794
150010,150010,JONESBORO RD SE@MIDWAY ST SE,33.689999,-84.364154
210799,99971039,SOUTHSIDE INDUSTRIAL PKWY@WILSON RD,33.652302,-84.384808
150024,150024,MCWILLIAMS RD SE@660,33.6883,-84.36664
150026,150026,MCWILLIAMS RD SE@JONESBORO RD SE,33.68835,-84.36438
150028,150028,JONESBORO RD SE@MIDWAY ST SE,33.68956,-84.363838
146274,146274,GRAYWALL ST@ENGLEWOOD DR,33.682594,-84.463669
146276,146276,MONTROSE DR@GRAYWALL ST,33.681953,-84.463676
146282,146282,DELOWE DR @ 2601,33.685333,-84.458641
149034,149034,OLD HAPEVILLE RD SW@BREVARD AVE SW,33.684921,-84.392067
149035,149035,MACON DR@LANG DR,33.694454,-84.390141
149036,149036,OLD HAPEVILLE RD SW@2500,33.686787,-84.39119
149047,149047,LAKEWOOD AVE @ MACON DR,33.699098,-84.392123
210800,99971030,MEMORIAL DR@S HOWARD ST,33.747331,-84.32243
149055,149055,MACON DR SW@2315,33.691284,-84.391462
210802,99971032,ROSWELL RD@OSNER DR,33.894978,-84.381269
149060,149060,HARPER RD SE@SWALLOW CIR SE,33.696092,-84.385614
147076,147076,LAKEWOOD AVE@SYLVAN RD,33.697425,-84.418108
148010,148010,SPRINGDALE RD SW@SPRINGDALE CIR ,33.69554,-84.41414
148014,148014,SPRINGDALE RD@GLENWAY DR,33.683075,-84.415405
148016,148016,CLEVELAND AVE@CHERYL DR,33.681166,-84.417182
148020,148020,SPRINGDALE RD SW@PEGG RD SW,33.68899,-84.41426
146026,146026,RANDALL ST@RN MARTIN ST,33.672131,-84.433754
146028,146028,BAYARD ST @ S MARTIN ST,33.671347,-84.43223
147008,147008,JEFFERSON AVE@BLOUNT ST,33.685188,-84.423492
147010,147010,JEFFERSON AVE@SYLVAN TER,33.685703,-84.42057
147012,147012,JEFFERSON AVE@SYLVAN RD,33.685432,-84.419029
144114,144114,NISKEY LAKE RD SW@2057,33.699437,-84.528339
147044,147044,SYLVAN RD@PARKSIDE TER,33.68746,-84.41869
147046,147046,SYLVAN RD@JEFFERSON AVE,33.68565,-84.41873
147050,147050,SYLVAN RD@GLENWAY DR,33.682377,-84.418791
147052,147052,SYLVAN RD@JEFFERSON AVE,33.68517,-84.41847
147062,147062,SYLVAN RD@OAKLEIGH DR,33.69045,-84.41831
147064,147064,SYLVAN RD@OAKLEIGH DR,33.691376,-84.418304
147068,147068,SYLVAN RD@MILLEDGE ST,33.693916,-84.418304
147078,147078,LAKEWOOD AVE @ SYLVAN RD,33.6971,-84.41781
148002,148002,SPRINGDALE RD SW@PERKERSON RD SW,33.69628,-84.41417
148006,148006,SPRINGDALE RD SW@YALE PL SW,33.69122,-84.41441
148022,148022,SPRINGDALE RD SW@VINSON PL SW,33.69003,-84.41432
148024,148024,SPRINGDALE RD SW@YALE PL SW,33.69109,-84.41423
146018,146018,RANDALL ST @ GEORGIA AVE,33.674824,-84.433739
146040,146040,CLEVELAND AVE @ RANDALL ST,33.679218,-84.433762
146050,146050,MAIN ST @ WILLIAMS AVE,33.67143,-84.44309
146052,146052,MAIN ST @ TAYLOR AVE,33.67369,-84.44208
146054,146054,MAIN ST @ IRENE KIDD PKWY,33.67524,-84.44151
148026,148026,SPRINGDALE RD@VINSON PL,33.69023,-84.41446
146084,146084,WASHINGTON AVE@PEARL ST,33.675526,-84.450325
146086,146086,WASHINGTON AVE@EIGHTH ST,33.674961,-84.45182
146088,146088,WASHINGTON AVE@KIMMERIDGE DR,33.674526,-84.453018
146090,146090,WASHINGTON RD@CLOVERHURST DR,33.673702,-84.454544
146098,146098,WASHINGTON RD@KENTUCKY CT,33.671452,-84.460403
146100,146100,WASHINGTON RD@REMINGTON ST,33.671131,-84.461792
146102,146102,WASHINGTON RD@REMINGTON ST,33.670624,-84.462929
146104,146104,WASHINGTON RD@JACKSON DR,33.669231,-84.464119
146114,146114,WASHINGTON RD@CLOVERHURST DR,33.672779,-84.455833
146116,146116,WASHINGTON RD@TAYLOR AVE,33.673233,-84.454872
146118,146118,WASHINGTON AVE@KIMMERIDGE DR,33.674213,-84.453037
146120,146120,WASHINGTON AVE@EIGHTH ST,33.674484,-84.452179
145042,145042,DALE LN SW@COUNTRY CLUB LN SW,33.694134,-84.496256
145060,145060,CONTINENTAL COLONY PKY SW@RIVIERA D,33.684693,-84.49219
145062,145062,STONE HOGAN CONNECTOR RD @ HOGAN RD SW,33.678082,-84.495129
145064,145064,STONE HOGAN RD CONNE@CAMP CREEK,33.676098,-84.497162
145074,145074,CAMP CREEK PKY SW@STONE RD SW,33.672877,-84.500525
145075,145075,N CAMP CREEK PKY SW @ 3540,33.670361,-84.503377
145076,145076,HEADLAND DR SW@GREENBRIAR PKY SW,33.689348,-84.488026
145078,145078,HEADLAND DR SW@MACLPIN TER ,33.689368,-84.487015
144136,144136,CAMPBELLTON RD SW@3700,33.689838,-84.509903
144138,144138,CAMPBELLTON RD SW@3660,33.689602,-84.507866
144140,144140,HOGAN RD@CAMBRIDGE DR,33.674775,-84.506527
144142,144142,N CAMP CREEK PKY @ HOGAN RD,33.67395,-84.509529
144154,144154,BARGE RD@HIGHWOOD DR,33.695442,-84.506484
145011,145011,CAMPBELLTON RD@GREENBRIAR PKY,33.692724,-84.49015
145012,145012,CAMPBELLTON RD SW@STAR MIST DR ,33.693589,-84.489004
145014,145014,CAMPBELLTON RD SW@CHILDRESS DR SW,33.695592,-84.486391
145016,145016,CAMPBELLTON RD SW@CHILDRESS DR SW,33.696331,-84.485917
145026,145026,GREENBRIAR PKY @ THE FONTAINEBLEAU,33.688256,-84.489702
145028,145028,GREENBRIAR PKY @ CONTINENTAL COLONY PKY,33.686268,-84.492027
145030,145030,GREENBRIAR PKY @ 3170,33.686257,-84.493746
145034,145034,MEADOWLANE DR SW@2153,33.696608,-84.49757
145046,145046,MT GILEAD RD SW@CAMPBELLTON RD SW,33.69318,-84.49118
145048,145048,MT GILEAD RD SW @ CAMPBELLTON RD SW,33.692536,-84.490816
145056,145056,CONTINENTAL COLONY PKY SW@GREENBRIA,33.685938,-84.4916
145058,145058,CONTINENTAL COLONY PKY@RIVIERA DR,33.684761,-84.492538
145066,145066,STONE HOGAN RD CONNE@HOGAN RD,33.676151,-84.496651
145068,145068,STONE HOGAN RD CONNECTOR @ N CAMP CREEK PKY,33.673721,-84.496788
145070,145070,STONE HOGAN RD CONNE@CAMP CREEK,33.673592,-84.497307
145072,145072,N CAMP CREEK PKY SW @ STONE RD SW,33.672117,-84.500683
145080,145080,HEADLAND DR@MACALPIN TER,33.689341,-84.485874
145082,145082,HEADLAND DR@BEN HILL RD,33.689823,-84.483536
145084,145084,HEADLAND DR@FOREST TRL,33.690262,-84.480087
145086,145086,HEADLAND DR SW@GREENBRIAR PKY SW,33.689639,-84.48745
145100,145100,OLD COLONY RD@RANTIN DR,33.685402,-84.470558
145102,145102,OLD COLONY RD@BRYANT DR,33.685429,-84.471741
145104,145104,BRYANT DR@WOODHILL LN,33.687004,-84.471672
145088,145088,HEADLAND DR@BEN HILL RD,33.690407,-84.483335
145090,145090,HEADLAND DR@FOREST TRL,33.690556,-84.479454
145096,145096,OLD COLONY RD@WESTCHESTER DR,33.685172,-84.46799
145098,145098,OLD COLONY RD@2485,33.685429,-84.469658
145106,145106,BRYANT DR @ S BRYAN CIR,33.688059,-84.471691
147074,147074,SPRINGDALE RD@BROOKDALE DR,33.686632,-84.414918
144080,144080,BUTNER RD SW @ 2511,33.688037,-84.52789
144081,144081,BUTNER RD SW @ NISKEY LAKE RD SW,33.688466,-84.527325
144082,144082,BUTNER RD SW@2390,33.689257,-84.526352
144084,144084,BUTNER RD@PALMETTO AVE,33.689957,-84.525157
144094,144094,CAMPBELLTON@3911,33.692,-84.516354
144096,144096,CAMPBELLTON RD SW@CAMP GROUND RD ,33.690794,-84.514283
144097,144097,CAMPBELLTON RD SW@CAMP GROUND RD SW,33.690651,-84.513601
144098,144098,CAMPBELLTON RD SW@FAIRBURN RD SW,33.690357,-84.512059
146192,146192,MONTROSE DR @ PLANTATION DR,33.682009,-84.462261
144090,144090,BUTNER RD SW@WAITS AVE SW,33.692219,-84.520065
144092,144092,BUTNER RD SW@DANIEL RD SW,33.692719,-84.51902
144100,144100,CAMPBELLTON RD SW@3901,33.691153,-84.514392
144102,144102,CAMPBELLTON RD SW@3911,33.692537,-84.516651
144104,144104,CAMPBELLTON RD SW@BUTNER RD SW,33.693566,-84.519094
144106,144106,CAMPBELLTON RD SW@KIMBERLY RD ,33.694331,-84.520939
144116,144116,N CAMP CREEK PKY @ NARRON DR,33.674984,-84.512215
144118,144118,N CAMP CREEK PKY @ DARRAH DR ,33.674649,-84.510004
144120,144120,HOGAN RD SW@CAMBRIDGE DR SW,33.674229,-84.506859
144108,144108,CAMPBELLTON RD SW @ KIMBERLY RD SW,33.695354,-84.523788
144110,144110,CAMPBELLTON RD SW@NISKEY LAKE RD SW,33.695702,-84.527493
144112,144112,NISKEY LAKE RD SW@CAMPBELLTON RD ,33.697663,-84.527846
900295,55204,NORTHLAKE PKY @ PARKLAKE DR,33.851188,-84.247594
146228,146228,HEADLAND DR @ DELOWE DR,33.68922,-84.458078
146230,146230,HEADLAND DR@KIMMRIDGE DR,33.688071,-84.454364
146232,146232,HEADLAND DR @ HILLCREST DR,33.685886,-84.452553
144060,144060,COUNTY LINE RD SW@ROLLING HILL RD S,33.688102,-84.5339
144070,144070,BUTNER RD SW@2656,33.68182,-84.535614
144072,144072,BUTNER RD SW @ 2636,33.683132,-84.533798
144074,144074,BUTNER RD SW @ 2616,33.684505,-84.531654
144076,144076,BUTNER RD SW @ 2598,33.685982,-84.530242
144078,144078,BUTNER RD SW @ 2578,33.68681,-84.52877
144086,144086,BUTNER RD SW@BLANTON AVE SW,33.690635,-84.522869
144088,144088,BUTNER RD SW@FAIRBURN AVE SW,33.691681,-84.520943
144144,144144,HOGAN RD@STONE RD,33.675095,-84.504127
144146,144146,HOGAN RD@CAMP CREEK PKY,33.674368,-84.508139
144148,144148,HOGAN RD @ N CAMP CREEK PKY,33.674069,-84.508048
145002,145002,GREENBRIAR PKY @ 3268,33.685984,-84.496396
145004,145004,GREENBRIAR PKY @ 3170,33.686095,-84.493843
145018,145018,CAMPBELLTON RD SW@STAR MIST DR ,33.694081,-84.489079
145020,145020,CAMPBELLTON RD SW@STAR MIST DR SW,33.693386,-84.489783
146240,146240,HEADLAND DR@BROAD AVE,33.687931,-84.45369
146242,146242,NORMAN BERRY DR@SEMMES ST,33.686026,-84.447115
146244,146244,NORMAN BERRY DR@LESTER ST,33.685612,-84.445023
146258,146258,DELOWE DR@2360,33.690765,-84.457161
146260,146260,HEADLAND DR@PLANTATION DR,33.689785,-84.462578
146262,146262,HEADLAND DR@WOOD VALLEY DR,33.689941,-84.463875
146264,146264,HEADLAND DR@GRAYWALL ST,33.690144,-84.465225
146080,146080,WASHINGTON AVE@CHENEY ST,33.675671,-84.446472
146082,146082,WASHINGTON AVE@JONES ST,33.675827,-84.448753
146092,146092,WASHINGTON RD@CLOVERHURST DR,33.673172,-84.455704
146094,146094,WASHINGTON RD@DELOWE DR,33.672318,-84.457756
146058,146058,MAIN ST @ WARE AVE,33.681744,-84.440219
146096,146096,WASHINGTON RD@DOBBS WAY,33.671783,-84.45929
146106,146106,WASHINGTON RD@JACKSON DR,33.668884,-84.463799
146108,146108,WASHINGTON RD@HARRIS DR,33.670723,-84.461769
146110,146110,WASHINGTON RD@DOBBS WAY,33.671337,-84.459648
146112,146112,WASHINGTON RD@DELOWE DR,33.67189,-84.458054
146122,146122,WASHINGTON AVE@PEARL ST,33.675112,-84.45074
146124,146124,WASHINGTON AVE@PARK ST,33.675304,-84.446251
146234,146234,HEADLAND DR@WARREN WAY,33.684765,-84.450348
146246,146246,CONNALLY DR @ MAIN ST,33.685675,-84.440862
146248,146248,MAIN ST @ W FORREST AVE,33.682778,-84.440246
146256,146256,DELOWE DR@ELINWOOD DR,33.691891,-84.457169
146266,146266,HEADLAND DR@HEADLAND TER,33.690308,-84.466187
146268,146268,OLD COLONY RD@RIGGS DR,33.685211,-84.466095
146270,146270,GRAYWALL ST@OLD COLONY RD,33.684853,-84.463951
146186,146186,HEADLAND DR@RIDGECREST LN,33.689606,-84.458794
146188,146188,HEADLAND DR@FARLEY ST,33.689938,-84.460678
146215,146215,DELOWE DR@LEITH AVE,33.686532,-84.45832
146226,146226,HEADLAND DR@FARLEY ST,33.689487,-84.4608
144062,144062,COUNTY LINE RD SW@SAHARA DR ,33.687002,-84.534218
144064,144064,COUNTY LINE RD SW@FERNBANK DR SW,33.68503,-84.53648
144068,144068,COUNTY LINE RD SW@BUTNER RD SW,33.680862,-84.5382
900294,55086,NORTHLAKE PKY @ 2200,33.849635,-84.244773
145108,145108,BRYANT DR @ N BRYAN CIR,33.689142,-84.471782
145110,145110,MT GILEAD RD SW@DALE LN,33.693698,-84.491883
145300,145300,HEADLAND DR@BRYANT DR,33.690871,-84.472268
145302,145302,STONE RD@MEADOWBRIDGE DR,33.673653,-84.502318
145304,145304,STONE RD@MEADOWBRIDGE DR,33.673815,-84.501997
145310,145310,CONTINENTAL COLONY PKY@3030,33.682219,-84.493547
145320,145320,GREENBRIAR PKY @ 3268,33.686136,-84.496429
145322,145322,CONTINENTAL COLONY PKY@RIVIERA DR,33.680852,-84.493478
145324,145324,CONTINENTAL COLONY PKY@HOGAN RD,33.68094,-84.493968
145334,145334,GREENBRIAR PKY @ CONTINENTAL COLONY,33.686152,-84.491715
146012,146012,RANDALL ST@HOLCOMB AVE,33.673901,-84.433685
900296,55206,NORTHLAKE PKY @ NORTHLAKE CENTER DR,33.850838,-84.244995
900297,55208,HENDERSON MILL RD@AMBLEWOOD CT,33.854805,-84.259127
900300,56012,IDLEWOOD RD @ 2115,33.84577,-84.21341
906407,56014,IDLEWOOD RD @ 2052,33.843742,-84.213623
900301,56016,CHAMBLEE TUCKER RD@HUGHES LEA,33.870777,-84.216904
900302,56023,CHAMBLEE TUCKER RD@CASTLE PINES CT,33.866107,-84.217935
900303,56024,CHAMBLEE TUCKER RD@PARK DR,33.863323,-84.218277
145112,145112,HEADLAND DR@GREENBRIAR PL,33.689507,-84.48558
145114,145114,GREENBRIAR PKY @ THE FONTAINEBLEAU,33.687614,-84.489685
145283,145283,DELOWE DR@NEELY AVE,33.683444,-84.457802
145312,145312,STONE HOGAN CONNECTOR RD @ HOGAN RD SW,33.677956,-84.495151
145314,145314,GREENBRIAR PKY @ HEADLAND DR      ,33.689193,-84.488896
145316,145316,HEADLAND DR@DODSON DR,33.69086,-84.4743
145318,145318,CONTINENTAL COLONY PKY@3033,33.682291,-84.493841
145326,145326,GREENBRIAR PKY @ 3350,33.683867,-84.499313
145328,145328,DALE LN@MEADOWLANE DR,33.694142,-84.497322
145330,145330,CONTINENTAL COLONY PKY@2999,33.683612,-84.492902
145332,145332,CONTINENTAL COLONY PKY@2999,33.683864,-84.493301
900306,55196,FLOWERS RD S @ 3155,33.8719,-84.25772
900308,55200,FLOWERS RD@2945,33.87189,-84.268326
900309,55202,FLOWERS RD@3155,33.871313,-84.25869
900311,56002,LAWRENCEVILLE HWY @ SHADY LN,33.84771,-84.227402
900312,56004,LAWRENCEVILLE HWY @ 3591,33.845242,-84.230797
900313,56006,LAWRENCEVILLE HWY @ WOODBRIAR CIR,33.844728,-84.231306
900314,56008,IDLEWOOD RD @ COWAN RD,33.849332,-84.213374
900315,56018,CHAMBLEE TUCKER RD@SMITHSONIA CT,33.870193,-84.216537
900316,56020,CHAMBLEE TUCKER RD@SMITHSONIA DR,33.868149,-84.218094
900317,56021,CHAMBLEE TUCKER RD@SMITHSONIA DR,33.867665,-84.217805
900318,56022,CHAMBLEE TUCKER RD@CASTLE PINES CT,33.866302,-84.218491
900323,56044,LAWRENCEVILLE HWY@WOODBRIAR CIR,33.844594,-84.231252
900324,56046,LAWRENCEVILLE HWY@3591,33.844986,-84.230263
900325,56048,LAWRENCEVILLE HWY@SHADY LN,33.84671,-84.227676
900326,56050,LAWRENCEVILLE HWY@BROCKETT RD,33.848907,-84.22348
900327,56037,CHAMBLEE TUCKER RD@HANNAH RD,33.860798,-84.219089
145022,145022,GREENBRIAR PKY @ CAMPBELLTON RD,33.691374,-84.489694
145024,145024,GREENBRIAR PKY @ HEADLAND DR SW,33.689805,-84.489214
145036,145036,MEADOWLANE DR SW@2201,33.694997,-84.497545
900249,54522,SHALLOWFORD RD@2792,33.868547,-84.290201
900250,54524,NORTHEAST EXPY@2902,33.865873,-84.288165
900252,55012,HENDERSON MILL RD@HENDERSON RD,33.867443,-84.250397
900253,55014,HENDERSON MILL RD@EVANS RD,33.871627,-84.250548
900254,55016,HENDERSON MILL RD@HENDERSON RD,33.867813,-84.250961
900255,55018,HENDERSON MILL RD @ BOLERO DR,33.865944,-84.251472
900256,55028,HENDERSON MILL RD@KINGS ARMS DR,33.8563,-84.257896
900257,55030,HENDERSON MILL RD@BRIARCLIFF WAY,33.855138,-84.259095
900264,55066,FLOWERS RD S@3042,33.870068,-84.263382
900265,55070,FLOWERS RD S@HOLLINSWOOD DR ,33.87027,-84.266113
900266,55072,FLOWERS RD S @ 2971,33.870708,-84.266243
900267,55074,FLOWERS RD S@HOLLINSWOOD DR ,33.871146,-84.26765
900269,55090,NORTHLAKE PKY @ PARKLAKE DR,33.851365,-84.249626
900270,55092,NORTHLAKE PKY @ 3330,33.851455,-84.251827
900271,55100,LAVISTA RD@3891,33.843468,-84.258171
900273,55114,LAVISTA RD @ HENDERSON MILL RD NE,33.846227,-84.254934
900274,55116,LAVISTA RD @ MONTREAL RD,33.844341,-84.257362
900275,55118,LAVISTA RD @ 3888,33.843491,-84.258537
900276,55142,HENDERSON MILL RD @ NORTHLAKE PKWY,33.852184,-84.258912
900277,55144,FIELDING DR NE @ HENDERSON MILL RD,33.850797,-84.258631
900278,55148,BRIARCLIFF RD NE @ RANDOLPH RD NE,33.849768,-84.258664
900279,55020,HENDERSON MILL RD@HENDERSON CREEK,33.863281,-84.252151
900280,55022,HENDERSON MILL RD@MIDVALE RD,33.861267,-84.251968
900281,55024,HENDERSON MILL RD@LESLIE DR,33.859623,-84.25325
900282,55026,HENDERSON MILL RD@LESLIE DR,33.858037,-84.255165
900285,55040,MONTREAL RD @ LAVISTA RD,33.843421,-84.2567
900290,55064,FLOWERS RD S@2930,33.870864,-84.259588
900292,55082,LAVISTA RD @ PARKLAKE DR,33.846692,-84.249572
900293,55084,NORTHLAKE PKY @ 2166,33.848369,-84.244734
900390,57036,HOWELL MILL RD NW@WESTON PL NW,33.838925,-84.423139
900392,57040,HOWELL MILL RD NW@SAINT ANNES LN NW,33.837853,-84.420765
900393,57050,BOLTON RD NW@COLLINS RD NW,33.81654,-84.464951
900394,57062,CORONET WAY NW @ MARIETTA BLVD NW,33.81743,-84.44728
900395,57086,BOLTON RD NW @ PAUL AVE NW,33.81493,-84.467354
900396,57088,BOLTON DR NW@2165,33.815783,-84.441342
900397,57089,BOLTON DR NW@2209,33.816696,-84.443239
900398,54164,CLAIRMONT RD@DRESDEN DR,33.865459,-84.309731
900399,54174,NORTHEAST EXPY@2601,33.853939,-84.297234
900400,54176,NORTHEAST EXPY@2529,33.855015,-84.295906
900401,54178,NORTHEAST EXPY NE@PEACHWOOD CIR ,33.857418,-84.293785
900402,54180,NORTHEAST EXPY@2805,33.860733,-84.292053
900403,54190,NORTHEAST EXPY NE@2628,33.856091,-84.296135
900418,57072,BOLTON RD NW@2353,33.820168,-84.460182
900419,57074,BOLTON RD@BARNETT DR,33.821052,-84.458544
900420,57078,BOLTON RD NW@BARNETT DR NW,33.821105,-84.45862
900421,57082,BOLTON RD NW@MARIETTA RD NW,33.818917,-84.462359
900422,54166,CLAIRMONT RD@CANMONT DR,33.863018,-84.309776
900423,54168,CLAIRMONT RD@RAVEN HILL,33.861473,-84.310089
900424,54170,CLAIRMONT RD@SKYLAND RD,33.860165,-84.310852
900425,54172,NORTHEAST EXPY@2501,33.848785,-84.30304
900426,54182,NORTHEAST EXPY@2825,33.861237,-84.291672
900427,54184,NORTHEAST EXPY NE@PLASTER RD ,33.862217,-84.292091
900428,54186,NORTHEAST EXPY NE@2772,33.860008,-84.293648
900429,54188,NORTHEAST EXPY NE@2700,33.858078,-84.294724
900431,54200,NORTHEAST EXPY@3070,33.86742,-84.286858
900432,54204,NORTHEAST EXPY@3265,33.872286,-84.277862
900404,54192,NORTHEAST EXPY NE@2550,33.854198,-84.298416
900407,54208,BUFORD HWY@BRAGG ST,33.868875,-84.299547
900408,54218,SHALLOWFORD RD@LAKE FLAIR CIR,33.859195,-84.284445
900411,54232,I-85 ACCESS @CENTURY BLVD,33.841539,-84.310459
900412,54234,BRIARCLIFF RD@BRIARWILLOW DR,33.844098,-84.289273
900413,54236,BRIARCLIFF RD@HERITAGE DR,33.844526,-84.288152
900414,54248,BRIARCLIFF RD@ECHO DR,33.848505,-84.283866
900415,54250,BRIARCLIFF RD@OAK GROVE RD,33.845635,-84.286082
900416,54510,CLAIRMONT RD @ W HARDEE AVE,33.870957,-84.309301
900417,54511,NORTH DEKALB HEALTH CENTER,33.87158,-84.308344
900437,54228,SHALLOWFORD RD@LAKE FLAIR CIR,33.861114,-84.286621
900438,54238,BRIARCLIFF RD@ECHO DR,33.848025,-84.283605
900439,54242,SHALLOWFORD RD@2865,33.871414,-84.29031
900440,54244,BRIARCLIFF RD@SUNSET DR,33.854277,-84.281876
900441,54246,BRIARCLIFF RD@BRIARLAKE RD,33.849526,-84.283612
900442,54512,CLAIRMONT RD@GEORGIAN DR,33.871229,-84.309686
900443,54514,SHALLOWFORD RD@2731,33.867045,-84.289679
900444,54516,NORTHEAST EXPY@2601,33.854486,-84.296615
900448,55006,HENDERSON MILL RD NE@MILL RIDGE TRL,33.853652,-84.259259
900328,56040,CHAMBLEE TUCKER RD@MORGAN RD,33.857057,-84.217816
900329,56017,CHAMBLEE TUCKER RD@WEBB RD,33.872983,-84.217005
900330,56042,CHAMBLEE TUCKER RD@LAVISTA RD,33.855867,-84.217386
900331,56052,LAWRENCEVILLE HWY@MORRIS AVE,33.849701,-84.21962
900332,56054,LAWRENCEVILLE HWY@FELLOWSHIP RD,33.849628,-84.218742
900333,56056,LAWRENCEVILLE HWY @ BROCKETT RD,33.849613,-84.222931
900335,56072,MAIN ST @ FIRST AVE,33.853771,-84.214821
900336,56074,MAIN ST @ LAWRENCEVILLE HWY,33.851696,-84.213515
900337,56076,MAIN ST @ LAVISTA RD,33.855525,-84.215139
900338,57090,BOLTON DR@MARIETTA BLVD,33.816239,-84.445562
900339,57100,BOLTON DR NW @ 2122,33.815134,-84.440251
900340,57102,BOLTON DR NW @ MARIETTA BLVD NW,33.814425,-84.440457
900341,57114,HOWELL MILL RD NW@2929,33.834354,-84.419228
900342,57116,HOWELL MILL RD NW@MOORES MILL RD NW,33.837094,-84.419952
900343,57150,BOLTON DR NW@2121,33.81528,-84.440007
900344,56078,LAVISTA RD@FOURTH ST,33.855946,-84.213791
900346,56093,CHAMBLEE TUCKER RD@BALL PARK DR,33.857558,-84.217797
900347,56095,LAWRENCEVILLE HWY @ TOWNSHIP LN,33.85042,-84.216161
900349,57008,MARIETTA BLVD @ 2555,33.819091,-84.450914
900350,57009,CORONET WAY@DEFOORS FERRY RD,33.820031,-84.448853
900351,57010,CORONET WAY NW @ BOLTON RD NW,33.82,-84.4492
900355,57022,BOLTON RD NW@MARIETTA BLVD NW,33.821359,-84.456238
900356,56060,LAWRENCEVILLE HWY @ FELLOWSHIP RD,33.850159,-84.219543
900357,56062,LAWRENCEVILLE HWY @ FELLOWSHIP RD,33.850155,-84.218071
900358,56064,LAWRENCEVILLE HWY@TOWNSHIP LN,33.849884,-84.216576
900359,56088,LAWRENCEVILLE @ MAIN ST,33.850731,-84.214897
900360,56070,MAIN ST @ LAWRENCEVILLE HWY,33.85141,-84.213905
900361,57092,BOLTON DR NW @ MARIETTA BLVD NW,33.816157,-84.445119
900362,57094,BOLTON DR NW @ 2230,33.816622,-84.444058
900363,57096,BOLTON DR NW @ 2220,33.816256,-84.442792
900364,57098,BOLTON DR NW @ 2160,33.81571,-84.441548
900365,57108,HOWELL MILL RD@PEACHTREE BATTLE AV,33.825171,-84.416686
900367,57112,HOWELL MILL RD NW@2760,33.829443,-84.416108
900369,56080,LAVISTA RD@LEHAVEN DR,33.856815,-84.212723
900370,56082,LAVISTA RD@LEHAVEN DR,33.85656,-84.21244
900371,56084,LAVISTA RD @ PINE LAKE PL,33.857182,-84.20945
900372,56086,HUGH HOWELL RD @ LAWRENCEVILLE HWY,33.852026,-84.209279
900373,56097,MAIN ST @ FIRST AVE,33.853662,-84.214205
900374,57002,CORONET WAY NW@MARIETTA BLVD NW,33.817763,-84.446958
900375,57004,MARIETTA BLVD @ QUEEN ST,33.81792,-84.44864
900378,57012,BOLTON RD NW @ MOORES MILL RD ,33.820639,-84.451732
900379,57014,BOLTON RD NW @ CORONET WAY NW,33.820266,-84.450428
900381,57016,CORONET WAY NW @ MOORES MILL RD NW,33.820981,-84.449676
900383,57026,BOLTON RD NW@2356,33.819939,-84.460947
900384,57032,HOWELL MILL RD NW@DOWNWOOD CIR NW,33.840456,-84.42697
900387,57043,MARIETTA BLVD @ BOLTON RD,33.820797,-84.454104
900388,57044,BOLTON RD NW@HOLLYWOOD RD ,33.814087,-84.467949
900389,57034,HOWELL MILL RD NW@WESTMINSTER CIR N,33.839562,-84.424288
900494,59077,PEACHTREE RD NW@BOLLING WAY NE,33.840078,-84.378883
900499,55120,LAVISTA RD@MONTREAL RD,33.844048,-84.257317
900500,55124,HENDERSON MILL RD NE @ LAVISTA RD ,33.846199,-84.255554
900501,55138,NORTHLAKE PKY NE @ NORTHLAKE CT NE,33.852226,-84.254156
900502,55140,NORTHLAKE PKY @ HENDERSON MILL RD ,33.852291,-84.257454
900503,55152,FLOWERS RD S @ UNIVERSITY CIR E,33.870988,-84.259757
900505,55158,LAVISTA RD @ 3850,33.843063,-84.259094
900506,55160,HENDERSON MILL RD@MIDVALE RD,33.861038,-84.251534
900508,55172,LAVISTA RD @ RANCHWOOD DR,33.846723,-84.251547
900509,55174,HENDERSON MILL RD@GLENROSE DR,33.862304,-84.25164
210549,99970780,IVAN ALLEN BLVD @ WILLIAMS ST,33.764722,-84.390188
210550,99970781,IVAN ALLEN JR BLVD @ CENTENNIAL OLYMPIC PARK DR,33.764739,-84.391809
900511,55162,HENDERSON MILL RD@GLENROSE DR,33.862308,-84.251358
900514,55168,NORTHLAKE PKY @ LAVISTA RD,33.847207,-84.244818
900540,59216,SIDNEY MARCUS BLVD@740,33.825844,-84.364014
900541,59218,SIDNEY MARCUS BLVD@760,33.825421,-84.363157
900542,59220,SIDNEY MARCUS BLVD@760,33.825779,-84.362389
900544,55190,HENDERSON MILL RD@KINGS ARMS DR,33.856237,-84.257245
900545,55192,HENDERSON MILL RD@LESLIE DR,33.857439,-84.255253
900546,55194,HENDERSON MILL RD@HENDERSON CREEK,33.863127,-84.251557
900449,55010,HENDERSON MILL RD NE@MIDVALE RD,33.85939,-84.253036
900450,54520,SHALLOWFORD RD@2803,33.868548,-84.289896
900451,58040,PEACHTREE RD @ PEACHTREE MEMORIAL  N,33.816032,-84.390892
900452,58042,PEACHTREE RD NW @ BISCAYNE DR NW,33.815001,-84.391896
900453,58044,PEACHTREE RD NW @ COLONIAL HOMES DR N,33.813778,-84.392509
900454,58056,PEACHTREE RD NW@BISCAYNE DR NW,33.814449,-84.391815
900455,58058,PEACHTREE RD@PEACHTREE MEMORIAL  N,33.81593,-84.39045
900456,58060,PEACHTREE RD NW @ PEACHTREE HILLS AVE,33.817801,-84.388868
900457,58064,PEACHTREE RD NE@PEACHTREE BATTLE  ,33.819576,-84.388374
900458,58074,PEACHTREE RD NW@E WESLEY RD NE,33.828384,-84.387375
900459,58076,PEACHTREE RD NW@2765,33.830227,-84.386565
900460,58078,PEACHTREE RD NW@RUMSON RD NE,33.830853,-84.385811
900461,58079,PEACHTREE RD NW@SHERIDAN DR NE,33.832816,-84.383682
900466,58112,HOWELL MILL RD NW@GLENBROOK DR NW,33.815423,-84.415229
900467,58116,HOWELL MILL RD NW@LONGWOOD DR NW,33.817047,-84.415588
900468,58118,HOWELL MILL RD NW@WOODLEY DR NW,33.818425,-84.416607
900469,58120,HOWELL MILL RD NW@WELLESLEY DR NW,33.819641,-84.416626
900473,58122,HOWELL MILL RD NW@WESLEY DR NW,33.822384,-84.415604
900474,58124,HOWELL MILL RD@PEACHTREE BATTLE,33.82495,-84.416397
900475,58126,HOWELL MILL RD NW@WESLEY RD NW,33.828442,-84.415756
900477,59004,PIEDMONT RD NE @ MIAMI CIR NE,33.82693,-84.36678
900478,59006,PIEDMONT RD NE @ ALPINE RD NE  ,33.82911,-84.36742
900479,59010,PIEDMONT RD NE @ ELLIOTT CIR NE,33.83384,-84.36784
900480,59012,PIEDMONT RD NE@BURKE RD ,33.835826,-84.367743
900481,59022,PIEDMONT RD NE@PACES FERRY RD NE,33.839792,-84.369573
900482,59023,PIEDMONT RD NE@PHARR RD NE,33.837112,-84.368328
900483,59024,PIEDMONT RD NE @ N HILLS DR NE,33.834197,-84.368046
900490,59068,PEACHTREE RD NE@MAPLE DR NE,33.84259,-84.372604
900492,59070,PEACHTREE RD NW @ W SHADOWLAWN AVE,33.842022,-84.374199
900493,59076,PEACHTREE RD NE @ SARDIS WAY NW,33.840144,-84.378835
900610,59256,LAVISTA RD NE@1220,33.817646,-84.350189
900611,59258,LINDBERGH DR @ CHESHIRE BRIDGE RD ,33.818264,-84.352089
900612,59260,LINDBERGH DR NE @ MELANTE DR NE,33.818924,-84.352737
900613,59262,LINDBERGH DR NE@MELANTE DR NE,33.818764,-84.35347
900615,59318,LENOX RD NE@CRANE RD NE,33.839823,-84.358318
900616,59320,LENOX RD NE@3071,33.838333,-84.358292
900617,59322,LENOX RD NE@EMBASSY CT ,33.835301,-84.357752
900618,59324,LENOX RD NE@BURKE RD NE,33.833843,-84.357567
900619,59334,LENOX RD NE@CANTERBURY RD NE,33.827358,-84.354561
900620,59338,LENOX RD NE@2791,33.830471,-84.355568
900621,59340,LENOX RD NE@LENOX WAY ,33.833523,-84.357071
900622,59342,LENOX RD NE@PLANTATION DR NE,33.83543,-84.357658
900636,57246,DEFOORS FERRY RD @ WESTOVER PLANTATION RD,33.821371,-84.437911
900637,58016,PEACHTREE RD NW@PEACHTREE AVE,33.835194,-84.3825
900638,58018,PEACHTREE RD NW@SHERIDAN,33.833595,-84.383653
900639,58019,PEACHTREE RD NW@2820,33.832359,-84.384879
900640,58020,PEACHTREE RD NW@RUMSON RD,33.831551,-84.385536
900641,58030,PEACHTREE RD@LINDBERGH DR,33.823036,-84.387741
900642,58032,PEACHTREE RD NW @ TERRACE DR NE,33.821506,-84.38805
900643,58034,PEACHTREE RD@PEACHTREE BATTLE AVE,33.819984,-84.388664
900644,58036,PEACHTREE RD NW @ PEACHTREE HILLS AVE  ,33.818177,-84.38902
900649,58066,PEACHTREE RD NW@LINDBERGH DR NE,33.822285,-84.387527
900650,58068,PEACHTREE RD NW@LAKEVIEW AVE NE,33.824722,-84.387344
900651,58070,PEACHTREE RD NW@2607,33.825665,-84.38726
900624,57212,DEFOORS FERRY RD@PINE GROVE,33.82077,-84.4474
900625,57214,BOLTON RD @ PAUL AVE,33.815223,-84.466551
210004,99970330,MOURY AVE@PRYOR RD,33.716957,-84.393017
900626,57234,BOLTON RD@MARIETTA BLVD,33.821065,-84.455454
900627,57236,BOLTON RD@COLLINS DR,33.816166,-84.466056
900628,57238,BOLTON PL@BOLTON DR,33.814843,-84.439711
900630,57222,BOLTON RD@COLLINS RD,33.817134,-84.46455
900633,57240,BOLTON RD@MARIETTA RD,33.818407,-84.462604
900634,57242,DEFOORS FERRY RD@HILLS AVE,33.81474,-84.43008
900635,57244,DEFOORS FERRY RD @ WESTOVER PLANTATION RD,33.821515,-84.437643
900652,58072,PEACHTREE RD NW@PEACHTREE WAY NE,33.827152,-84.387268
900653,58080,PEACHTREE RD NW @ DELMONT,33.833245,-84.38317
900654,58081,PEACHTREE RD NW@PEACHTREE AVE NE,33.834623,-84.382209
900658,58098,PEACHTREE RD@2626,33.825953,-84.387668
900659,58100,PEACHTREE RD NW@TERRACE DR NE,33.821087,-84.387985
900660,58102,HOWELL MILL RD NW@WESLEY RD NW,33.828781,-84.416176
900661,57248,DEFOORS FERRY RD@HILLS AVE,33.814621,-84.430952
900662,57250,DEFOORS FERRY RD@BOHLER RD,33.813869,-84.427618
900664,58014,PEACHTREE RD NW@PHARR RD NW,33.83717,-84.381653
900665,58022,PEACHTREE RD NW@ANDREWS DR NW,33.829742,-84.387474
900666,58024,PEACHTREE RD NW@WESLEY RD NW,33.828714,-84.387611
900567,59222,SIDNEY MARCUS BLVD@PINE TREE RD NE,33.824383,-84.358917
900568,59364,BUFORD HWY@LENOX POINTE,33.825018,-84.354483
900570,59371,LENOX RD@VALE CLOSE,33.831796,-84.356458
900571,59380,PEACHTREE RD@3171,33.840947,-84.375471
900573,59373,LENOX RD@VALE CLOSE,33.832244,-84.35693
900574,59374,LENOX RD NE@LENOX POINTE  NE,33.826724,-84.353737
900575,59376,LENOX RD@2770,33.830202,-84.355651
210398,99970629,BOLTON RD NW@745,33.775512,-84.504313
900579,59766,LENOX RD@FERNCLIFF RD,33.843676,-84.35828
900580,59230,BUFORD HWY NE@SHADY VALLEY DR NE,33.825245,-84.351952
900581,59232,BUFORD HWY NE@2620,33.826607,-84.348373
900582,59234,BUFORD HWY NE@2641,33.82608,-84.348351
900583,59236,BUFORD HWY NE@2695,33.82761,-84.346634
900584,59244,WOODLAND AVE @ CHESHIRE BRIDGE RD ,33.814777,-84.35228
900585,59246,CHESHIRE BRIDGE RD NE@WOODLAND AVE ,33.814629,-84.352943
900586,59250,LAVISTA RD NE@CITADEL DR ,33.817296,-84.348268
900587,59254,LAVISTA RD @ CHESHIRE BRIDGE RD,33.81797,-84.350006
900588,59264,LINDBERGH DR NE@LINDRIDGE DR ,33.819584,-84.354927
900589,59266,LINDBERGH DR NE@LINDRIDGE DR NE,33.820292,-84.357114
900590,59268,LINDBERGH DR NE@STRATHMORE DR NE,33.819625,-84.356075
900591,59310,LINDBERGH DR NE@ADINA DR NE,33.82079,-84.36288
900593,59316,LENOX RD NE@CANTER RD NE,33.841343,-84.358269
900594,59326,LENOX RD NE@CANTERBURY RD ,33.82843,-84.355011
900595,59328,LENOX RD NE@CANTERBURY RD NE,33.827572,-84.354897
900596,59330,LENOX RD NE@LENOX POINTE  NE,33.826588,-84.35408
900597,59332,CHANTILLY DR NE@2535,33.823131,-84.351044
900598,59344,LENOX RD NE@3016,33.836617,-84.357811
900599,59346,LENOX RD NE@CRANE RD NE,33.839405,-84.357895
900600,59348,LENOX RD NE@CANTER RD NE,33.841305,-84.357841
900601,59352,SIDNEY MARCUS BLVD@PIEDMONT RD,33.825432,-84.365532
900603,59224,SIDNEY MARCUS BLVD@PINE TREE RD NE,33.824722,-84.358398
900604,59226,BUFORD HWY NE@LENOX RD ,33.824623,-84.3545
900605,59228,BUFORD HWY NE@LENOX RD ,33.825726,-84.352783
900609,59242,WOODLAND AVE NE@LENOX RD NE,33.814274,-84.352173
901625,66090,MARY GEORGE AVE NW @ ABNER PL NW,33.801853,-84.45911
901626,66094,PERRY BLVD NW @ MARY GEORGE AVE NW,33.80249,-84.458397
901627,66096,PERRY BLVD NW @ 2210,33.803543,-84.459633
901628,66108,HOLLYWOOD RD NW@BROWNTOWN RD NW,33.804259,-84.470362
901632,67165,HUFF RD NW@BOYD AVE NW,33.789292,-84.419208
901633,67166,HUFF RD NW@ENGLISH ST NW,33.789504,-84.419926
901863,66128,HOLLYWOOD RD NW@FELKER WARD ST NW,33.809219,-84.472084
901864,66130,HOLLYWOOD RD NW@MAIN ST NW,33.810322,-84.471542
902114,64006,GREER CIR @ ROADHAVEN DR,33.832404,-84.203724
902115,64008,GREER CIR @ MOUNTAIN IND BLVD,33.832026,-84.198339
902116,64010,MOUNTAIN IND BLVD @ LEWIS RD,33.829131,-84.196357
902118,66560,ATLANTA INDUSTRIAL PKY@BANKHEAD HW,33.791089,-84.496419
902119,67126,HUFF RD NW@BOYD AVE NW,33.789554,-84.419086
902120,67128,HUFF RD NW@ENGLISH ST NW,33.78963,-84.420887
902331,64034,PONCE DE LEON AVE@KELTON DR,33.825517,-84.199186
902332,64048,PONCE DE LEON AVE@JULIETTE RD,33.816334,-84.182182
901669,67064,DEFOOR AVE NW@TAYLOR ST NW,33.801849,-84.42028
901670,67066,DEFOOR AVE NW@MARVIN ST NW,33.800808,-84.419006
901671,67069,BELLEMEADE AVE NW@BUCHANAN ST NW,33.80037,-84.41332
901677,67169,HUFF RDNW@ELLSWORTH IND BLVD NW,33.788863,-84.425991
901678,67170,HUFF RD NW@FAIRMONT AVE NW,33.789502,-84.422229
901679,67180,CHATTAHOOCHEE AVE NW@ELLSWORTH DR ,33.800659,-84.427029
901680,67182,CHATTAHOOCHEE AVE NW @ SOUTHLAND CIR ,33.801638,-84.43018
901903,69029,PIEDMONT AVE NE@1502,33.795393,-84.370546
901904,69030,PIEDMONT AVE NE@AVERY DR NE,33.79446,-84.3717
901913,69170,CHESHIRE BRIDGE RD NE@LIDDELL DR NE,33.809124,-84.36132
901914,69174,CHESHIRE BRIDGE RD NE@FAULKNER RD N,33.811342,-84.356512
901917,61172,CLAIRMONT RD@AZALEA CIR,33.815445,-84.3063
901918,61174,CLAIRMONT RD@TRAILMARK DR,33.817947,-84.305008
901919,61184,CLAIRMONT RD@BRIARCLIFF RD,33.837077,-84.311693
901920,61186,I-85 N@WILLIAMSBURG VILLAGE,33.840271,-84.310127
901921,61188,LAVISTA RD@PANGBORN RD,33.829544,-84.278702
901922,61190,LAVISTA RD@CLAIRMONT RD,33.819835,-84.304321
902150,60018,BUFORD HWY NE@2965,33.834152,-84.339256
902151,60020,BUFORD HWY NE @ LINCOLN COURT AVE,33.834595,-84.339256
902153,60031,CLAIRMONT RD@2890,33.84189,-84.313682
902154,60032,BUFORD HWY@3132,33.838173,-84.333794
902155,60034,BUFORD HWY@BRAMBLEWOOD DR NE,33.839539,-84.332245
902157,61058,LAVISTA RD@PANGBORN RD,33.828468,-84.28051
902158,61060,LAVISTA RD @ 3210,33.830025,-84.278638
902159,66562,ATLANTA IND PKWY @ATLANTA IND DRNW,33.796147,-84.495876
902161,66578,HOLLYWOOD RD@SPRING ST,33.788773,-84.466287
901467,69240,JOHNSON RD NE@BEECH VALLEY RD NE,33.797764,-84.349037
901468,69242,JOHNSON RD NE@PASADENA AVE NE,33.798466,-84.347809
901469,69244,JOHNSON RD NE@NOBLE DR NE,33.798759,-84.346794
901475,60112,BRIARCLIFF RD NE@SHERIDAN RD NE,33.824364,-84.334633
901476,60113,BRIARCLIFF RD NE@MAYFAIR DR NE,33.82299,-84.33509
901477,60114,BRIARCLIFF RD NE@HOPKINS TER NE,33.82144,-84.33509
901701,60268,NORTHEAST EXPY@CLIFF VALLEY WAY,33.835999,-84.32563
901702,59014,PIEDMONT RD NE@PEACHTREE DR NE,33.837353,-84.368179
901703,59016,PIEDMONT RD NE@PACES FERRY RD NE,33.838752,-84.368854
901704,59018,PIEDMONT RD NE@MARTINA DR NE,33.841768,-84.370263
901705,59021,PIEDMONT RD NE@MARTINA DR NE,33.84171,-84.37053
901706,59030,PIEDMONT RD NE @ WESLEY RD NE,33.83147,-84.3683
901707,59032,PIEDMONT RD NE @ ALPINE RD NE,33.829533,-84.367958
901708,60242,BRIARCLIFF RD NE@DRUID VALLEY DR NE,33.825809,-84.33321
901710,60249,BRIARCLIFF RD@SOUTHLAND VISTA CT,33.81407,-84.33424
901923,61017,BRIARCLIFF RD@3055,33.836591,-84.315939
901924,61018,BRIARCLIFF RD@3040,33.837317,-84.313735
901925,61020,BRIARCLIFF RD@3145,33.837341,-84.309578
901926,61022,BRIARCLIFF RD@FISHER TRL,33.838005,-84.306404
901927,60318,CHANTILLY DR@1700,33.826193,-84.345691
901928,60320,LAVISTA RD@2133,33.816787,-84.316092
901929,60340,LAVISTA RD NE@1679,33.816038,-84.333356
901930,66432,AJAX DR@ABNER TER,33.800256,-84.462218
901933,66442,AUDREY PL@BROWNTOWN RD,33.801876,-84.476319
901934,66554,BOLTON RD@BROWNTOWN RD,33.804427,-84.482905
901935,66556,BOLTON RD@1051,33.78414,-84.497262
902167,68306,BELLEMEADE AVE NW@HOWELL MILL RD NW,33.80048,-84.41582
900002,99970032,ROCKBRIDGE RD@HALWICK WAY,33.786681,-84.198596
902173,70168,CLIFTON RD NE @ BILTMORE DR NE,33.80481,-84.334709
902174,70170,CLIFTON RD NE @ BRIARCLIFF RD NE,33.806154,-84.335917
902175,70174,BRIARCLIFF RD NE@BRIAR VISTA TER NE,33.81022,-84.33459
901478,60116,BRIARCLIFF RD NE@CITADEL DR NE,33.81988,-84.335298
901479,60126,BRIARCLIFF RD@MT ROYAL DR,33.833542,-84.319946
901480,60128,BRIARCLIFF RD@BEACON HILL BLVD,33.834175,-84.318825
901481,60129,BRIARCLIFF RD@BRUCE RD,33.835726,-84.316898
901482,60130,BRIARCLIFF RD@3040,33.83753,-84.313935
901483,60140,BRIARCLIFF RD@CHILDERLEE,33.830735,-84.32449
901484,60142,BRIARCLIFF RD@WOODCLIFF DR,33.829491,-84.326347
901485,60144,BRIARCLIFF RD@EXECUTIVE PARK LN,33.828542,-84.327855
901486,60146,BRIARCLIFF RD @ N DRUID HILLS RD,33.827887,-84.329109
901488,60158,LAVISTA RD NE @ WOODLAND HILLS DR ,33.815018,-84.340805
901489,60160,LAVISTA RD NE@BROOKFOREST DR NE,33.815804,-84.342873
901492,70144,CLIFTON RD NE @ GAMBRELL DR ,33.790074,-84.320686
901711,60252,N DRUID HILLS RD NE @ SAXON PL,33.834839,-84.341591
901712,68225,HOLLYWOOD RD@SAINT PAUL AVE,33.789981,-84.466705
901716,68242,HOWELL MILL RD NW@HUFF RD NW,33.78799,-84.412014
901717,68244,HOWELL MILL RD NW@BISHOP ST NW,33.790513,-84.412227
901718,68248,HOWELL MILL RD NW@TRABERT AVE NW,33.793236,-84.414185
901719,68250,HOWELL MILL RD NW@TRABERT AVE NW,33.793402,-84.414508
901723,69028,PIEDMONT AVE NE@MONROE DR NE,33.79668,-84.36951
901724,70200,N DECATUR RD NE @ LULLWATER RD ,33.78715,-84.32853
901725,70201,N DECATUR RD @ WASH LIVELY CIR,33.791806,-84.283459
901726,70210,N DECATUR RD NE @ BURLINGTON RD NE,33.79015,-84.31769
901936,68254,HOWELL MILL RD NW@ANTONE ST NW,33.797831,-84.416104
901937,68259,HOWELL MILL RD NW@VERNER ST NW,33.79901,-84.416163
901938,68260,HOWELL MILL RD NW@1775,33.803696,-84.413788
901939,68262,HOWELL MILL RD NW@BECK ST NW,33.807008,-84.412633
901940,68264,HOWELL MILL RD NW@CHANNING DR NW,33.807553,-84.412505
901941,68278,HOWELL MILL RD NW@HUFF RD NW,33.78759,-84.411728
901943,70052,WOODLAND HILLS DR NE @ RALPH RD,33.811721,-84.34312
901944,70054,WOODLAND HILLS DR NE @ COUNTRY LN ,33.813667,-84.341797
901945,69056,PIEDMONT CIR NE@MONROE DR NE,33.80987,-84.36758
901946,70288,CLIFTON RD@BRIARCLIFF RD,33.80528,-84.335826
901947,70290,CLIFTON RD@OLD BRIARCLIFF WAY,33.803541,-84.333611
901948,70292,CLIFTON RD@1762,33.80096,-84.33125
901949,70294,CLIFTON RD @ MICHAEL ST,33.800537,-84.329361
901950,70304,CLIFTON RD @ ASHBURY CIR,33.79533,-84.32166
902176,70183,E ROCK SPRINGS RD NE @ N DECATUR RD,33.79187,-84.33935
902177,70184,N DECATUR RD NE @ BRIARCLIFF RD NE,33.790974,-84.338134
902178,70186,N DECATUR RD NE @ SPRINGDALE RD NE,33.789749,-84.334953
902179,70188,N DECATUR RD NE @ OXFORD RD NE,33.78906,-84.33315
902180,66064,MCCALLIE BLVD NW@PERRY BLVD NW,33.799342,-84.454863
902181,66066,MCCALLIE BLVD NW@ABNER PL NW,33.79987,-84.457596
902182,66068,MCCALLIE BLVD NW@ABNER PL NW,33.79953,-84.457664
902183,66070,AJAX DR NW@MCCALLIE BLVD NW,33.798461,-84.458886
902184,66082,ABNER LN NW@ABNER PL NW,33.80174,-84.463047
902187,69228,N HIGHLAND AVE NE @ MORNINGSIDE DR,33.790676,-84.355416
902188,69230,N HIGHLAND AVE NE @ LANIER PL NE,33.791569,-84.353928
902189,69232,N HIGHLAND AVE NE @ UNIVERSITY DR,33.79274,-84.351631
902190,69234,N HIGHLAND AVE NE @ REEDER CIR NE,33.794399,-84.351021
901493,70146,CLIFTON RD NE @ LOWERGATE DR NE,33.79163,-84.32079
901494,70156,CLIFTON RD NE @ 1599,33.79931,-84.3244
901496,70160,CLIFTON RD NE @ TURNER LN,33.80075,-84.32681
901497,70162,CLIFTON RD NE @ TURNER LN (CDC PKWY),33.800758,-84.328737
901498,64060,E PONCE DE LEON AVE @ 5650,33.82256,-84.187826
901499,64062,E PONCE DE LEON AVE @STONE RIDGE DR,33.823953,-84.190443
901500,64064,E PONCE DE LEON AVE @ LITTON DR,33.825405,-84.193367
901501,64066,E PONCE DE LEON AVE @ MOUNTAIN IND,33.825908,-84.196345
901502,66606,HOLLYWOOD RD@HOLLYWOOD CT,33.797647,-84.470042
901503,66608,HIGHTOWER RD@WEST AVE,33.78886,-84.470551
901727,70212,N DECATUR RD NE @ RIDGEWOOD DR NE,33.79071,-84.31683
901728,70216,N DECATUR RD NE @ PRINCETON WAY ,33.79192,-84.31232
901729,70218,N DECATUR RD @ HAYGOOD DR,33.79208,-84.314682
901730,70230,N DECATUR RD @ LULLWATER RD,33.78747,-84.32899
901731,64100,E PONCE DE LEON AVE@BEVERAGE DR,33.820843,-84.186472
901732,64102,E PONCE DE LEON AVE @ BEVERAGE DR,33.820713,-84.186221
901734,64114,JULIETTE RD @ STONE MILL WAY,33.817913,-84.180451
901989,61182,CLAIRMONT RD@COUNCIL BLUFF DR,33.830772,-84.309029
901990,70074,JOHNSON RD NE@PASADENA AVE NE,33.80106,-84.342659
901991,70076,JOHNSON RD NE@NOBLE DR ,33.80267,-84.340561
901993,70078,JOHNSON RD NE@HELEN DR NE,33.803514,-84.339876
901995,63084,E PONCE DE LEON AVE@COBBLE MILL,33.815979,-84.235619
901996,63086,E PONCE DE LEON AVE@4366,33.814205,-84.236855
901997,63088,PONCE DE LEON AVE@SMITH ST,33.812492,-84.238083
902218,70122,N DECATUR RD NE @ DOWMAN DR NE,33.788326,-84.325539
902219,64020,N HAIRSTON RD @ CHATFIELD DR N,33.817866,-84.193793
902220,64022,N HAIRSTON RD @ CHATFIELD DR S,33.815219,-84.193763
902221,64024,MOUNTAIN INDUSTRIAL BLVD@LEWIS RD,33.828638,-84.195988
902222,64026,MOUNTAIN INDUSTRIAL BLVD@GREER CIR,33.833115,-84.199043
902223,66568,ATLANTA INDUSTRIAL PKY@3710,33.800932,-84.496495
901567,67162,HUFF RD NW@EARNEST ST NW,33.787625,-84.415055
901572,70232,N DECATUR RD NE @ OAKDALE RD ,33.788616,-84.331497
901573,70234,N DECATUR RD @ OXFORD RD,33.78915,-84.33258
901805,69144,MONROE DR NE@1705,33.800957,-84.371513
901806,69146,MONROE DR NE@ALLEN RD NE,33.802185,-84.372406
901807,69148,MONROE DR NE@PIEDMONT WAY NE,33.803394,-84.373138
901735,64116,JULIETTE RD @ WOOD BEND DR,33.817771,-84.180942
901736,64118,JULIETTE RD @ TREE MOUNTAIN PKY,33.821111,-84.180092
901737,64120,JULIETTE RD @ TREE MOUNTAIN PKY,33.821254,-84.179663
901738,64122,JULIETTE RD @ E PONCE DE LEON AVE,33.816608,-84.181214
901739,69156,MONROE DR NE@2075,33.80983,-84.37339
901740,69158,MONROE DR NE@ARMOUR DR NE,33.810169,-84.372063
901742,69166,CHESHIRE BRIDGE RD NE@WINDEMERE DR ,33.808056,-84.36393
901743,69168,CHESHIRE BRIDGE RD NE@MANCHESTER ST,33.808456,-84.362869
901952,70308,CLIFTON RD@UPPER GATE DR,33.79279,-84.32124
901953,70354,CLIFTON RD @ FISHBURNE DR,33.790543,-84.321196
901954,66018,PERRY BLVD NW@MARY GEORGE AVE NW,33.802752,-84.458213
901955,66020,PERRY BLVD NW@2210,33.80365,-84.45942
901956,66022,PERRY BLVD NW@2250,33.804764,-84.460556
901957,66024,PERRY BLVD NW@2245,33.805916,-84.463326
902224,66570,ATLANTA IND PKWY NW@ATLANTA IND DR ,33.796147,-84.495963
902226,66084,ABNER LN NW @ ABNER PL NW,33.80174,-84.463232
902227,66085,ABNER LN NW @ MARY GEORGE AVE NW,33.80132,-84.463134
902228,66086,ABNER PL NW @ ABNER TER NW,33.802198,-84.461949
902229,67136,ELLSWORTH DR NW@1320,33.791026,-84.426922
902230,67137,ELLSWORTH DR NW@ELAINE AVE NW,33.792651,-84.426788
902231,69068,MONROE DR NE@ROCK SPRINGS RD NE,33.805508,-84.374985
901537,60076,LAVISTA RD NE@BROOKFOREST DR NE,33.815399,-84.343254
901538,60078,BUFORD HWY @ N CLIFF VALLEY WAY,33.842354,-84.329926
901539,60088,N DRUID HILLS RD NE @ 2095,33.832466,-84.33567
901540,60090,N DRUID HILLS RD NE @ WOODCLIFF DR ,33.82665,-84.32471
901541,60092,N DRUID HILLS RD NE @ 2415,33.826413,-84.32487
901542,60094,N DRUID HILLS RD NE @ HOLLY LN NE,33.8256,-84.32267
901808,69150,MONROE DR NE@ROCK SPRINGS RD NE,33.805183,-84.374382
901810,69160,MONROE DR NE@MONROE PL NE,33.810318,-84.370735
901811,69162,MONROE DR NE@PIEDMONT CIR ,33.810177,-84.36837
901812,69164,PIEDMONT CIR NE@1924,33.80901,-84.367462
901813,71002,CHURCH ST@GLEN LAKE COMMONS,33.785504,-84.291787
901815,60258,CHANTILLY DR NE@1680,33.826399,-84.345126
901817,60270,NORTHEAST EXPY NE@1777,33.838306,-84.321274
901819,60283,LAVISTA RD NE@VISTA VALLEY DR NE,33.814603,-84.33623
210602,99970819,BROWNS MILL RD@MT ZION RD,33.673421,-84.383607
901964,69194,CHESHIRE BRIDGE RD NE @ FAULKNER RD NE,33.81158,-84.35641
901965,61192,CLAIRMONT RD@AUDUBON DR,33.833822,-84.310203
901966,61200,LAVISTA RD@AMANDA CIR,33.819884,-84.308654
902191,62010,LAWRENCEVILLE HWY @ LINKWOOD,33.824749,-84.257759
902192,62012,LAWRENCEVILLE HWY @ MONTREAL RD W,33.825848,-84.255318
902193,62014,LAWRENCEVILLE HWY @ MONTREAL RD E,33.827831,-84.250755
902194,62016,LAWRENCEVILLE HWY @ MONTREAL RD E,33.828283,-84.250401
902195,62026,LAWRENCEVILLE @ LEE WAY,33.830096,-84.24853
902196,62028,LAWRENCEVILLE HWY@CRESCENT CENTRE ,33.828229,-84.250608
901543,60106,N DRUID HILLS RD NE @ LAVISTA RD NE,33.817799,-84.313133
901544,60108,N DRUID HILLS RD NE @ LAVISTA RD NE,33.81751,-84.31187
901545,60109,N DRUID HILLS RD @ BERKELEY LN NE,33.82089,-84.31421
901546,60110,N DRUID HILLS RD NE @ DRUID OAKS,33.822238,-84.316312
901547,60118,BRIARCLIFF RD NE@2178,33.817093,-84.335472
901548,60120,BRIARCLIFF RD@EXECUTIVE PARK LN NE,33.828391,-84.327558
901549,66610,JAMES JACKSON PKY@NORTHWEST DR,33.789043,-84.476591
901550,66612,HOLLYWOOD RD@GUN CLUB RD,33.794225,-84.469621
211136,99971384,STARLINE DR@HABERSHAM DR,33.725117,-84.290785
901775,60214,LAVISTA RD NE@EMPIRE RD NE,33.814777,-84.321373
901776,60216,LAVISTA RD NE@HOUSTON MILL RD NE,33.814831,-84.319527
901777,60218,LAVISTA RD NE@MERRY LN NE,33.815311,-84.317923
901778,60220,LAVISTA RD NE @ N DRUID HILLS RD NE,33.817276,-84.313622
902026,69196,CHESHIRE BRIDGE RD NE@1984 ,33.81071,-84.35851
902027,69198,CHESHIRE BRIDGE NE@WELLBOURNE DR NE,33.810016,-84.360048
902028,69200,CHESHIRE BRIDGE RD NE@MANCHESTER ST,33.80906,-84.36279
902029,61010,CLAIRMONT RD@COUNCIL BLUFF DR,33.830448,-84.309471
902030,61012,CLAIRMONT RD@AUDUBON DR,33.833881,-84.310684
902031,61014,N DRUID HILLS RD NE @ 2941,33.815795,-84.310702
902032,61016,N DRUID HILLS RD NE @ 2960,33.81547,-84.31006
902033,61023,BRIARCLIFF RD NE@CHRYSLER DR NE,33.841218,-84.296665
902034,61024,BRIARCLIFF RD@OAKAWANA DR,33.844185,-84.291313
902035,61026,BRIARCLIFF RD@ABBY LN,33.842615,-84.294612
902263,60040,BUFORD HWY @ CLIFF VALLEY WAY NE,33.84108,-84.330971
902264,60042,BUFORD HWY@CLIFF VALLEY  NE,33.840942,-84.330643
902197,62030,LAWRENCEVILLE HWY @ MONTREAL RD W,33.826309,-84.255951
902200,61062,LAVISTA RD @ HARTLAND DR,33.829193,-84.280205
902201,61064,LAVISTA RD @ RICHARD STOKES DR,33.826624,-84.282894
902202,61074,LAVISTA RD @ BRIANWOOD RD,33.823326,-84.297066
902203,61076,LAVISTA RD @ SAGAMORE DR,33.82267,-84.298836
902204,61078,LAVISTA RD @ PINE FOREST DR,33.822231,-84.300316
902205,61080,LAVISTA RD @ PINELLAS TRL,33.820638,-84.302087
901508,69140,MONROE DR NE@1605,33.798317,-84.369835
901509,70240,N DECATUR RD @ E ROCK SPRINGS RD,33.791395,-84.338884
901511,70246,E ROCK SPRINGS RD @ MARKAN DR,33.79414,-84.34264
901512,70248,E ROCK SPRINGS RD @ BEECH VALLEY WY,33.79526,-84.34474
901782,60240,BRIARCLIFF RD NE @ WOODLAKE DR NE,33.82708,-84.33121
901784,68220,HOWELL MILL RD NW@MORRIS ST NW,33.796454,-84.416271
901785,67057,DEFOOR AVE NW@RHOMBOID ST NW,33.80772,-84.42513
901786,67058,DEFOOR AVE NW@MANTISSA ST NW,33.806084,-84.424957
901787,67061,DEFOOR AVE NW@CLAREMONT ST NW,33.804541,-84.422499
901788,67063,DEFOOR AVE@DEFOOR PL,33.80287,-84.42108
901789,68900,ARTS CENTER STATION,33.789283,-84.387125
901998,66416,BOLTON RD@PEYTON RD,33.807791,-84.480569
901999,66422,HOLLYWOOD RD@ALVIN DR,33.787734,-84.464488
902000,66428,MCCALLIE BLVD@AJAX DR,33.798532,-84.458767
902266,60054,BRIARCLIFF RD NE@WOODLAKE DR NE,33.82663,-84.33153
902267,60056,BRIARCLIFF RD NE@DRUID VALLEY DR NE,33.82533,-84.33332
902268,60058,BRIARCLIFF RD@DRUID HILLS RD,33.827335,-84.329857
902269,60060,N DRUID HILLS RD @ EXECUTIVE PARK DR,33.828934,-84.332466
902270,60046,BRIARCLIFF RD NE@2195,33.81727,-84.33511
902271,66586,MCCALLIE BLVD@ADDISON PL,33.799427,-84.458313
902273,66590,BRIDGEPORT DR@MARCO DR,33.800229,-84.476772
902274,66592,HOLLYWOOD RD@SPINK ST,33.812919,-84.469514
902276,68300,NORTHSIDE DR NW@NORTHSIDE CIR NW,33.797085,-84.407804
902277,68302,BELLEMEADE AVE @ NORTHSIDE DR NW,33.80035,-84.40851
901576,66270,NORTHWEST DR NW@BOLTON RD NW,33.800608,-84.487564
901577,66272,NORTHWEST DR NW@1514,33.79586,-84.486313
906575,66274,NORTHWEST DR@1464,33.795586,-84.485405
901513,70278,JOHNSON RD NE@MEADOWDALE AVE,33.799915,-84.344096
901514,70280,JOHNSON RD NE@NOBLE DR NE,33.799057,-84.346664
901515,70283,BRIARCLIFF RD@EUCLADE CT,33.81194,-84.33446
901516,66088,ABNER PL @ 2219,33.802227,-84.46047
901517,66098,PERRY BLVD NW @ 2250,33.804577,-84.460732
901518,66100,PERRY BLVD NW @ 2221,33.805241,-84.46154
901519,69238,N HIGHLAND AVE @ E ROCK SPRINGS RD,33.79649,-84.35006
901745,71010,CHURCH ST @ 1471,33.79012,-84.28664
901746,71012,CHURCH ST@SYCAMORE DR,33.791019,-84.285912
901747,71013,N DECATUR RD @ WINN WAY,33.79247,-84.28145
901748,71014,N DECATUR RD @ 2787,33.79275,-84.27991
901749,71025,LAWRENCEVILLE HWY @ N DRUID HILLS RD,33.808911,-84.273304
901750,71026,LAWRENCEVILLE HWY @ JORDAN LN,33.801635,-84.279493
902004,66448,BOLTON RD@REY ST,33.801988,-84.485946
902005,66040,BROWNTOWN RD NW@AUDREY PL ,33.801898,-84.476754
902006,69034,PIEDMONT AVE NE@15TH ST NE,33.78829,-84.377597
902232,69070,MONROE DR NE@PIEDMONT WAY NE,33.803837,-84.373924
902233,69080,MONROE DR NE@PIEDMONT AVE NE,33.796894,-84.369499
901578,66276,NORTHWEST DR NW@1420,33.794212,-84.484665
901579,66286,NORTHWEST DR@JAMES JACKSON PKY,33.787277,-84.477158
901583,68024,PEACHTREE RD NW @ 28TH ST NW,33.805571,-84.393899
901584,68026,PEACHTREE RD NW @ 26TH ST NW,33.802605,-84.393143
901585,68028,PEACHTREE RD NW @ 25TH ST NW,33.801495,-84.39299
901586,68030,PEACHTREE RD NW @ DEERING RD NW,33.79986,-84.392768
901589,60122,BRIARCLIFF RD @ WOODCLIFF DR,33.829071,-84.325859
901590,60124,BRIARCLIFF RD@CHILDERLEE LN,33.830616,-84.324036
901820,60284,LAVISTA RD@BRIARCLIFF RD,33.815289,-84.335068
901753,66132,HOLLYWOOD RD NW@SPINK ST NW,33.811722,-84.470581
901754,66134,HOLLYWOOD RD NW@2081,33.812359,-84.469994
901755,59034,PIEDMONT RD NE @ MIAMI CIR NE,33.828001,-84.367452
901756,59036,PIEDMONT RD NE @ SIDNEY MARCUS  ,33.825954,-84.367348
901757,59052,PIEDMONT RD NE @ DARLINGTON RD,33.832042,-84.367722
901967,61202,CLAIRMONT RD@COUNCIL BLUFF DR,33.828211,-84.308499
901968,61204,CLAIRMONT RD@WILANDREW DR,33.817994,-84.305332
901970,61220,LAVISTA RD @ AMANDA CIR,33.820349,-84.308654
901971,61222,BRIARCLIFF RD@CRESTLINE DR,33.838406,-84.302175
901972,66166,ARGYLE DR NW@MALDO DR NW,33.79947,-84.481644
901973,66168,ARGYLE DR NW@CARDO DR NW,33.799266,-84.480055
902238,69064,MONROE DR NE@1942,33.80864,-84.375473
902239,70166,CLIFTON RD NE @ OLD BRIARCLIFF WAY,33.802646,-84.332621
902241,66220,HOLLYWOOD RD NW@BOLTON RD NW,33.813315,-84.469148
902242,66222,HOLLYWOOD RD NW@SPINK ST NW,33.812328,-84.470604
902243,66224,HOLLYWOOD RD NW@MAIN ST NW,33.81077,-84.471375
902244,66242,JAMES JACKSON PKY@JAMES JACKSON CT,33.799317,-84.475552
901552,67008,PERRY BLVD NW@JOHNSON RD NW,33.788638,-84.437008
901554,68348,HOWELL MILL RD NW@1710,33.803736,-84.414242
901821,60290,BRIARCLIFF RD@TIMOTHY DR,33.832672,-84.321358
901822,60292,BRIARCLIFF RD@TIMOTHY DR,33.833141,-84.321312
901823,60294,N DRUID HILLS RD NE @ DRUID OAKS DR,33.822194,-84.316443
901830,68252,HOWELL MILL RD NW@FORREST ST NW,33.795891,-84.415756
210860,99971100,PIERCE DR@PEACHTREE IND BLVD,33.894274,-84.305914
210861,99971101,PIERCE DR@PEACHTREE IND BLVD,33.893952,-84.305784
210863,99971102,PERIMETER CTR PL@PERIMETER CTR W,33.927368,-84.341371
902036,61028,BRIARCLIFF RD@CHRYSLER DR,33.8416,-84.296394
902037,61038,BRIARCLIFF RD @ CLAIRMONT RD,33.837599,-84.310697
901974,66170,ARGYLE DR NW@MARCO DR NW,33.799573,-84.478359
901975,60350,BRIARCLIFF RD@WOODCLIFF DR,33.828722,-84.326949
901976,60352,BRIARCLIFF RD @ CLIFF VALLEY WAY,33.831574,-84.32262
901977,60354,BRIARCLIFF RD@CLAIRMONT RD,33.83728,-84.31232
901978,60364,WOODLAND HILLS DR@LAVISTA RD,33.814758,-84.340994
901979,60366,BUFORD HWY@3160,33.839346,-84.332923
901980,60368,BUFORD HWY@2750,33.829213,-84.345349
901555,68350,HOWELL MILL RD NW@RIDGEWAY AVE NW,33.802139,-84.415283
901556,68352,HUFF RD@HOWELL MILL RD,33.787933,-84.412271
901557,68354,HUFF RD NW@FOSTER ST NW,33.787879,-84.413517
901560,70148,CLIFTON RD NE @ UPPER GATE DR NE,33.79261,-84.32074
901561,70150,CLIFTON RD NE @ HAYGOOD DR NE,33.79494,-84.32106
901562,66102,PERRY BLVD NW @ 2245,33.805695,-84.463257
901593,60136,BRIARCLIFF RD@MT ROYAL DR,33.834263,-84.319794
901594,60138,BRIARCLIFF RD@CLIFF VALLEY WAY,33.831919,-84.322552
901595,60148,BRIARCLIFF RD NE@SOUTHLAND VISTA CT,33.813431,-84.333664
901596,60150,LAVISTA RD NE @ BRIARCLIFF RD NE,33.815411,-84.335701
901597,60152,LAVISTA RD NE @ VISTA VALLEY DR NE,33.814869,-84.336617
901598,60154,LAVISTA RD NE @ BERNADETTE LN NE,33.814297,-84.338371
901599,60164,LAVISTA RD@BRIARVISTA WAY,33.81668,-84.330239
901600,60166,LAVISTA RD@ARBORVISTA DR,33.816349,-84.328423
901601,60182,LAVISTA RD @ N DRUID HILLS RD,33.818325,-84.310898
901602,60184,LAVISTA RD @ N DRUID HILLS RD,33.817682,-84.313593
901603,60194,LAVISTA RD @ BILTMORE DR,33.815777,-84.323425
901604,70152,CLIFTON RD NE @ GATEWOOD RD NE,33.796928,-84.322083
901605,70154,CLIFTON RD NE @ HOUSTON MILL RD NE,33.798279,-84.323472
901831,70020,BRIARCLIFF RD NE @ N DECATUR RD NE,33.790634,-84.337929
902211,60010,BUFORD HWY NE@2865,33.831989,-84.341705
902212,60011,BUFORD @ 2800,33.830195,-84.344272
902217,70116,BRIARCLIFF RD NE@OAK PARK DR  NE,33.785451,-84.341015
901525,69270,E ROCK SPRINGS RD NE @ JOHNSON RD,33.796806,-84.349815
901526,62034,LAWRENCEVILLE HWY @ FRAZIER RD,33.822827,-84.262994
901527,62035,LAWRENCEVILLE HWY@2514,33.820017,-84.265033
901528,62044,MONTREAL RD @ CLARKSTON INDUSTRIAL BLVD,33.817463,-84.245651
901796,70202,N DECATUR RD NE @ S OXFORD RD NE,33.788218,-84.325267
901797,70204,N DECATUR RD NE @ 1641,33.78802,-84.32328
901798,70206,N DECATUR RD NE @ CLIFTON RD ,33.788479,-84.321327
901799,66136,HOLLYWOOD RD NW@BOLTON RD ,33.813374,-84.468697
901800,66138,HOLLYWOOD RD NW@ARNO DR NW,33.798948,-84.46996
901801,66162,MALDO DR NW@CARDO DR NW,33.800739,-84.481819
901802,67194,CHATTAHOOCHEE AVE NW@MARIETTA BLVD ,33.809645,-84.437741
901803,67196,MARIETTA BLVD NW @ 2130,33.813256,-84.439754
